Time,GPS Speed,GPS Nsat,GPS LatAcc,GPS LonAcc,GPS Slope,GPS Heading,GPS Gyro,GPS Altitude,GPS PosAccuracy,GPS SpdAccuracy,GPS Radius,GPS Latitude,GPS Longitude,LoggerTemp,External Voltage,Oil Pressure,Front Brake V,Rear Brake V,Shift Tank P,InlineAcc,LateralAcc,VerticalAcc,RollRate,PitchRate,YawRate,Luminosity,Front Brake p,Rear Brake p,Brake Bias,SDS RPM,SDS GEAR,SDS BATT VOLT,SDS CLT,SDS IAT,SDS BAROM,SDS FUEL2 msx10,SDS FUEL3 msx10,SDS FUEL4 msx10,SDS IGN AN 1,SDS IGN AN 2,SDS IGN AN 3,SDS IGN AN 4,SDS TPS1 V,SDS TPS2 V,SDS GRIP1 V,SDS GRIP2 V,SDS SHIFT SENS,SDS STP,SDS TPS2,SDS GRIP1,SDS GRIP2,SDS SPIN RATE,SDS SPIN RT TC,SDS DH COR AN,Compressor,CompressorCurrent,CompressorStatus
s,km/h,dimensionless,gravity,gravity,deg,deg,deg/s,m,mm,km/h,m,deg,deg,celsius,V,bar,mV,mV,bar,gravity,gravity,gravity,deg/s,deg/s,deg/s,percent,bar,bar,percent,rpm,gear,V,celsius,celsius,bar,dimensionless,dimensionless,dimensionless,deg,deg,deg,deg,mV,mV,mV,mV,mV,percent,percent,percent,percent,percent,percent,deg,dimensionless,A,dimensionless
0,0.1527,13,0,0,20.5383,-122.7581,0,399.8125,9.3,0.13,10000,32.81481863,-111.8321625,31.1,12.3,-0.09,494,493,5.8,-0.03,-0.03,-0.98,0.8,2.1,-0.3,47.94,0.6,-0.2,0,0,0,0,74,46,0.98,30,28,33,22,21.7,22,21.7,4900,4900,4900,4900,4900,0,0,153,106,1228,-0.1,127.8,1,0.333,0
0.05,0.1527,13,0,0,20.5383,-122.7581,0,399.8125,9.3,0.13,10000,32.81481863,-111.8321625,31.1,12.3,-0.09,494,493,5.8,-0.03,-0.03,-0.98,0.8,2.1,-0.2,47.94,0.6,-0.2,0,0,0,0,74,46,0.98,30,28,33,22,21.7,22,21.7,4900,4900,4900,4900,4900,0,0,153,106,1228,-0.1,127.8,1,0.333,0
0.1,0.1527,13,0,0,20.5383,-122.7581,0,399.8125,9.3,0.13,10000,32.81481863,-111.8321625,31.1,12.3,-0.09,494,493,5.8,-0.03,-0.03,-0.98,0.8,2.1,-0.2,47.94,0.6,-0.2,0,0,0,0,74,46,0.98,30,28,33,22,21.7,22,21.7,4900,4900,4900,4900,4900,0,0,153,106,1228,-0.1,127.8,1,0.333,0
0.15,0.1527,13,0,0,20.5383,-122.7581,0,399.8125,9.3,0.13,10000,32.81481863,-111.8321625,31.1,12.3,-0.09,494,493,5.8,-0.03,-0.03,-0.98,0.8,2.1,-0.3,47.94,0.6,-0.2,0,0,0,0,74,46,0.98,30,28,33,22,21.7,22,21.7,4900,4900,4900,4900,4900,0,0,153,106,1228,-0.1,127.8,1,0.333,0
0.2,0.153,13,0,0,20.3229,-122.9848,0,399.8125,9.3,0.1303,10000,32.81481863,-111.8321625,31.1,12.3,-0.09,494,493,5.8,-0.03,-0.03,-0.98,0.8,2.1,-0.3,47.94,0.6,-0.2,0,0,0,0,74,46,0.98,30,28,33,22,21.7,22,21.7,4900,4900,4900,4900,4900,0,0,153,106,1228,-0.1,127.8,1,0.333,0
0.25,0.1553,13,0,0,11.3761,-69.0398,0,399.8116,9.3,0.1345,10000,32.81481864,-111.8321625,31.1,12.3,-0.09,494,493,5.8,-0.03,-0.03,-0.98,0.8,2.1,-0.3,47.94,0.6,-0.2,0,0,0,0,74,46,0.98,30,28,33,22,21.7,22,21.7,4900,4900,4900,4900,4900,0,0,153,106,1228,-0.1,127.8,1,0.333,0
0.3,0.1324,13,0,0,14.3167,110.5234,0,399.8049,9.3,0.1305,10000,32.81481862,-111.8321624,31.1,12.3,-0.09,494,493,5.8,-0.03,-0.03,-0.98,0.7,2.1,-0.2,47.94,0.7,-0.1,0,0,0,0,74,46,0.98,30,28,33,22,21.7,22,21.7,4900,4900,4900,4900,4900,0,0,153,106,1228,-0.1,127.8,1,0.333,0
0.35,0.0927,13,0,0,30.3965,117.3885,0,399.8111,9.2225,0.1322,10000,32.81481862,-111.8321623,31.1,12.3,-0.09,493,492,5.8,-0.03,-0.03,-0.97,0.8,2.1,-0.2,47.94,0.7,-0.1,0,0,0,0,74,46,0.98,30,28,33,22,21.7,22,21.7,4900,4900,4900,4900,4900,0,0,153,106,1228,-0.1,127.8,1,0.333,0
0.4,0.0815,13,0,0,26.924,153.4889,0,399.8272,9.2,0.14,10000,32.81481866,-111.8321622,31.1,12.3,-0.09,493,492,5.81,-0.03,-0.03,-0.97,0.8,2.1,-0.2,47.94,0.7,-0.1,0,0,0,0,74,46,0.98,30,28,33,22,21.7,22,21.7,4900,4900,4900,4900,4900,0,0,153,106,1228,-0.1,127.8,1,0.333,0
0.45,0.1179,13,0,0,21.5676,-12.7533,0,399.8234,9.2,0.14,10000,32.81481875,-111.8321623,31.1,12.3,-0.09,494,493,5.81,-0.02,-0.03,-0.97,0.7,2.1,-0.2,47.94,0.7,-0.1,0,0,0,0,74,46,0.98,30,28,33,22,21.7,22,21.7,4900,4900,4900,4900,4900,0,0,153,106,1228,-0.1,127.8,1,0.333,0
0.5,0.0541,13,0,0,11.6555,8.942,0,399.808,9.2,0.1295,10000,32.81481865,-111.8321623,31.1,12.3,-0.09,494,492,5.81,-0.03,-0.03,-0.98,0.7,2.1,-0.2,47.94,0.7,-0.1,0,0,0,0,74,46,0.98,30,28,33,22,21.7,22,21.7,4900,4900,4900,4900,4900,0,0,153,106,1228,-0.1,127.8,1,0.333,0
0.55,0.0279,13,0,0,39.7355,111.231,0,399.808,9.2,0.1355,10000,32.81481863,-111.8321622,31.1,12.3,-0.09,493,493,5.81,-0.03,-0.03,-0.98,0.7,2.1,-0.2,47.94,0.6,-0.1,0,0,0,0,74,46,0.98,30,28,33,22,21.7,22,21.7,4900,4900,4900,4900,4900,0,0,153,106,1228,-0.1,127.8,1,0.333,0
0.6,0.1278,13,0,0,15.9443,32.6415,0,399.8084,9.2,0.1395,10000,32.81481876,-111.8321622,31.1,12.3,-0.09,494,493,5.81,-0.03,-0.03,-0.97,0.8,2.1,-0.2,47.94,0.6,-0.1,0,0,0,0,74,46,0.98,30,28,33,22,21.7,22,21.7,4900,4900,4900,4900,4900,0,0,153,106,1228,-0.1,127.8,1,0.333,0
0.65,0.0812,13,0,0,7.8603,55.6863,0,399.8044,9.2,0.12,10000,32.81481868,-111.8321622,31.1,12.3,-0.09,492,492,5.8,-0.03,-0.03,-0.98,0.8,2.1,-0.2,47.94,0.6,-0.1,0,0,0,0,74,46,0.98,30,28,33,22,21.7,22,21.7,4900,4900,4900,4900,4900,0,0,153,106,1228,-0.1,127.8,1,0.333,0
0.7,0.1332,13,0,0,19.1164,43.9697,0,399.8107,9.2,0.1357,10000,32.8148187,-111.8321621,31.1,12.3,-0.09,493,491,5.8,-0.03,-0.03,-0.98,0.8,2.1,-0.2,47.94,0.6,-0.1,0,0,0,0,74,46,0.98,30,28,33,22,21.7,22,21.7,4900,4900,4900,4900,4900,0,0,153,106,1228,-0.1,127.8,1,0.333,0
0.75,0.1168,13,0,0,23.2254,-19.1669,0,399.8132,9.2,0.1423,10000,32.81481873,-111.8321621,31.1,12.3,-0.09,493,491,5.8,-0.03,-0.03,-0.98,0.8,2.1,-0.3,47.94,0.6,-0.2,0,0,0,0,74,46,0.98,30,28,33,22,21.7,22,21.7,4900,4900,4900,4900,4900,0,0,153,106,1228,-0.1,127.8,1,0.333,0
0.8,0.1329,13,0,0,23.4606,-37.6739,0,399.8129,9.2,0.1395,10000,32.81481873,-111.8321621,31.1,12.3,-0.09,493,493,5.8,-0.03,-0.03,-0.97,0.8,2.1,-0.3,47.94,0.6,-0.1,0,0,0,0,74,46,0.98,30,28,33,22,21.7,22,21.7,4900,4900,4900,4900,4900,0,0,153,106,1228,-0.1,127.8,1,0.333,0
0.85,0.0673,13,0,0,33.2962,92.3941,0,399.8,9.2,0.1283,10000,32.8148187,-111.8321621,31.1,12.3,-0.09,493,492,5.8,-0.03,-0.03,-0.97,0.8,2,-0.3,47.94,0.6,-0.1,0,0,0,0,74,46,0.98,30,28,33,22,21.7,22,21.7,4900,4900,4900,4900,4900,0,0,153,106,1228,-0.1,127.8,1,0.333,0
0.9,0.0917,13,0,0,17.958,161.4539,0,399.8065,9.2,0.15,10000,32.81481867,-111.832162,31.1,12.3,-0.09,494,491,5.81,-0.03,-0.03,-0.98,0.8,2.1,-0.2,47.94,0.6,-0.1,0,0,0,0,74,46,0.98,30,28,33,22,21.7,22,21.7,4900,4900,4900,4900,4900,0,0,153,106,1228,-0.1,127.8,1,0.333,0
0.95,0.0508,13,0,0,41.917,148.2493,0,399.8167,9.2,0.119,10000,32.81481869,-111.8321619,31.1,12.3,-0.09,494,493,5.81,-0.03,-0.03,-0.97,0.8,2.1,-0.2,47.94,0.7,-0.1,0,0,0,0,74,46,0.98,30,28,33,22,21.7,22,21.7,4900,4900,4900,4900,4900,0,0,153,106,1228,-0.1,127.8,1,0.333,0
1,0.2438,13,0,0,10.5242,-17.5721,0,399.8235,9.2,0.15,10000,32.81481879,-111.8321619,31.1,12.3,-0.09,493,492,5.8,-0.03,-0.03,-0.98,0.8,2,-0.2,47.94,0.7,-0.1,0,0,0,0,74,46,0.98,30,28,33,22,21.7,22,21.7,4900,4900,4900,4900,4900,0,0,153,106,1228,-0.1,127.8,1,0.333,0
1.05,0.2371,13,0,0,16.1593,-6.7778,0,399.8287,9.2,0.15,10000,32.81481886,-111.8321619,31.1,12.3,-0.09,494,491,5.81,-0.03,-0.03,-0.98,0.8,1.9,-0.2,48.04,0.7,-0.1,0,0,0,0,74,46,0.98,30,28,33,22,21.7,22,21.7,4900,4900,4900,4900,4900,0,0,153,106,1228,-0.1,127.8,1,0.333,0
1.1,0.1812,13,0,0,17.9558,-29.8974,0,399.8259,9.2,0.1395,10000,32.81481882,-111.8321619,31.1,12.2,-0.09,494,492,5.81,-0.03,-0.03,-0.97,0.9,2,-0.2,48.27,0.7,-0.1,0,0,0,0,74,46,0.98,30,28,33,22,21.7,22,21.7,4900,4900,4900,4900,4900,0,0,153,106,1228,-0.1,127.8,1,0.333,0
1.15,0.1125,13,0,0,16.0804,-16.9921,0,399.8173,9.2,0.1455,10000,32.81481882,-111.832162,31.1,12.2,-0.09,493,492,5.81,-0.03,-0.03,-0.97,0.8,2.1,-0.2,48.5,0.7,-0.1,0,0,0,0,74,46,0.98,30,28,33,22,21.7,22,21.7,4900,4900,4900,4900,4900,0,0,153,106,1228,-0.1,127.8,1,0.333,0
1.2,0.1338,13,0,0,15.8785,34.3966,0,399.8013,9.1,0.1495,10000,32.81481891,-111.8321618,31.1,12.1,-0.09,492,492,5.8,-0.03,-0.03,-0.98,0.8,2.1,-0.2,48.73,0.6,-0.1,0,0,0,0,74,46,0.98,30,28,33,22,21.7,22,21.7,4900,4900,4900,4900,4900,0,0,153,106,1228,-0.1,127.8,1,0.333,0
1.25,0.3229,13,0,0,7.0778,125.0429,0,399.8055,9.1,0.1355,10000,32.81481878,-111.8321618,31.1,12.1,-0.09,493,491,5.8,-0.02,-0.03,-0.97,0.8,2,-0.2,48.97,0.6,-0.1,0,0,0,0,74,46,0.98,30,28,33,22,21.7,22,21.7,4900,4900,4900,4900,4900,0,0,153,106,1228,-0.1,127.8,1,0.333,0
1.3,0.4055,13,0,0,7.7155,-8.3849,0,399.8304,9.1,0.15,10000,32.81481864,-111.8321618,31.1,12,-0.09,493,491,5.81,-0.02,-0.03,-0.97,0.7,2.1,-0.1,49.2,0.6,-0.1,0,0,0,0,74,46,0.98,30,28,33,22,21.7,22,21.7,4900,4900,4900,4900,4900,0,0,153,106,1228,-0.1,127.8,1,0.333,0
1.35,0.3155,13,0,0,5.6691,-146.9719,0,399.8268,9.1,0.1423,10000,32.81481866,-111.8321619,31.1,12,-0.09,494,491,5.81,-0.03,-0.03,-0.97,0.7,2.3,-0.1,49.43,0.7,-0.1,0,0,0,0,74,46,0.98,30,28,33,22,21.7,22,21.7,4900,4900,4900,4900,4900,0,0,153,106,1228,-0.1,127.8,1,0.333,0
1.4,0.2553,13,0,0,13.2946,-108.3037,0,399.8152,9.1,0.12,10000,32.81481873,-111.8321618,31.1,11.9,-0.09,494,491,5.81,-0.03,-0.03,-0.97,0.7,2.3,-0.1,49.66,0.7,-0.1,0,0,0,0,74,46,0.98,30,28,33,22,21.7,22,21.7,4900,4900,4900,4900,4900,0,0,153,106,1228,-0.1,127.8,1,0.333,0
1.45,0.2276,13,0,0,13.5781,-76.8198,0,399.8303,9.1,0.1173,10000,32.81481874,-111.8321619,31.1,11.9,-0.08,367,365,3.98,-0.03,-0.03,-0.98,0.7,2.3,-0.1,49.9,0.6,-0.1,0,0,0,0.5,74,46,0.98,30,28,33,22,21.7,22,21.7,4900,4900,4900,4900,4900,0,0,153,106,1228,-0.1,127.8,1,0.333,0
1.5,0.1064,13,0,0,23.4044,-19.4397,0,399.8308,9.1,0.1258,10000,32.8148188,-111.8321618,31.1,11.9,-0.06,8,5,-1.24,-0.03,-0.03,-0.98,0.8,2.2,-0.2,50.13,-1.5,-2.3,0,0,0,2.7,74,46,0.98,30,28,33,22,21.7,22,21.7,4900,4900,4900,4900,4900,0,0,153,106,1228,-0.1,127.8,1,0.333,0
1.55,0.154,13,0,0,1.9731,50.8354,0,399.8147,9.1,0.1322,10000,32.81481886,-111.8321618,31.1,11.8,-0.05,5,1,-1.28,-0.03,-0.03,-0.98,0.7,2.2,-0.2,50.36,-5.7,-6.6,0,0,0,4.9,74,46,0.98,30,28,33,22,21.7,22,21.7,4900,4900,4900,4900,4900,0,0,153,106,1228,-0.1,127.8,1,0.333,0
1.6,0.1522,13,0,0,14.715,8.4061,0,399.8098,9.1,0.1497,10000,32.81481886,-111.8321618,31.1,11.8,-0.06,4,1,-1.29,-0.02,-0.02,-0.97,0.8,2.1,-0.2,50.6,-7.8,-8.6,0,11,0,6.8,74,46,0.98,30,28,33,22,21.7,22,21.7,4900,4900,4900,4900,4900,0,0,153,106,1228,-0.1,127.8,1,0.333,0
1.65,0.1081,13,0,0,14.3488,68.7413,0,399.8258,9.1,0.14,10000,32.81481885,-111.8321617,31.2,11.7,-0.02,4,2,-1.28,-0.02,-0.02,-0.97,0.8,2.1,-0.3,50.83,-7.8,-8.6,0,68,0,7.9,74,46,0.98,30,28,32,22,21.7,22,21.7,4900,4900,4900,4900,4900,0,0,153,106,1228,-0.1,127.8,1,0.333,0
1.7,0.0705,13,0,0,13.3964,148.7787,0,399.8098,9.1,0.1347,10000,32.81481886,-111.8321617,31.2,11.7,0.04,132,129,0.55,-0.02,-0.01,-0.98,0.8,2.1,-0.2,51.06,-5.6,-6.4,0,125,0,8.9,74,46,0.98,30,28,32,22,21.7,22,21.7,4900,4900,4900,4900,4900,0,0,153,106,1228,-0.1,127.8,1,0.333,0
1.75,0.0756,13,0,0,29.2003,30.2696,0,399.8164,9.1,0.1377,10000,32.81481891,-111.8321617,31.2,11.6,0.32,492,490,5.8,-0.03,-0.01,-0.99,0.8,2.2,-0.2,51.29,-1.4,-2.2,0,181,0,9.9,74,46,0.98,30,28,31,22,21.7,22,21.7,4900,4900,4900,4900,4900,0,0,153,106,1228,-0.1,127.8,1,0.333,0
1.8,0.0702,13,0,0,31.9961,0,0,399.8195,9.1,0.1392,10000,32.81481891,-111.8321617,31.2,11.6,0.53,492,490,5.83,-0.04,0,-1.01,0.8,2.2,-0.2,51.53,0.6,-0.2,0,298,0,10.9,74,46,0.98,30,28,31,22.1,21.8,22,21.6,4900,4900,4900,4900,4900,0,0,153,106,1228,-0.1,127.8,1,0.333,0
1.85,0.0099,13,0,0,9.0245,0,0,399.8234,9.1,0.1128,10000,32.81481881,-111.8321617,31.2,11.5,0.58,492,491,5.84,-0.05,0,-1.02,0.8,2.2,-0.2,51.76,0.6,-0.2,0,688,0,11.4,74.3,46,0.98,28,26,29,22.6,22.3,22.2,21.3,4900,4900,4900,4900,4900,0,0,153,106,1228,-0.1,127.8,1,0.333,0
1.9,0.036,13,0,0,25.1504,-53.6819,0,399.8194,9.0475,0.1147,10000,32.81481891,-111.8321616,31.2,11.5,0.52,493,492,5.85,-0.06,-0.01,-1.02,0.8,2.1,-0.2,51.99,0.6,-0.1,0,1078,0,11.8,74.5,46,0.98,26,25,27,23.1,22.8,22.4,20.9,4900,4900,4900,4900,4900,0,0,153,106,1228,-0.1,127.8,1,0.333,0
1.95,0.0639,13,0,0,18.2143,-102.2513,0,399.8031,9,0.1255,10000,32.81481893,-111.8321617,31.2,11.4,0.61,493,493,5.86,-0.05,-0.02,-0.99,0.8,2,-0.4,52.23,0.6,-0.1,0,1468,0,12.3,74.8,46,0.98,24,23,25,23.7,23.4,22.5,20.6,4900,4900,4900,4900,4900,0,0,153,106,1228,-0.1,127.8,1,0.333,0
2,0.2151,13,0,0,6.3105,-143.9393,0,399.8145,9,0.1395,10000,32.81481884,-111.8321616,31.2,11.4,0.62,493,492,5.87,-0.02,-0.03,-0.98,0.8,2,-0.4,52.46,0.7,-0.1,0,1794,0,12.7,75,46,0.98,23,22,23,24.1,23.8,22.7,20.4,4900,4900,4900,4900,4900,0,0,153,106,1231.06,-0.1,127.8,1,0.333,0
2.05,0.1662,13,0,0,11.8637,97.7897,0,399.8341,9,0.12,10000,32.81481883,-111.8321615,31.2,11.4,0.59,493,491,5.88,0.01,-0.03,-0.99,0.8,2.2,-0.2,52.46,0.6,-0.1,0,1784,0,12.9,75,46,0.98,23,22,23,24.2,23.5,23,20.7,4900,4900,4900,4900,4900,0,0,153,106,1250.22,-0.1,127.8,1,0.333,0
2.1,0.2242,13,0,0,6.5481,71.6517,0,399.822,9,0.1252,10000,32.8148189,-111.8321615,31.2,11.5,0.67,493,491,5.89,0,-0.03,-0.98,0.7,2.2,-0.2,52.14,0.6,-0.1,0,1774,0,13,75,46,0.98,23,22,24,24.3,23.2,23.3,21,4900,4900,4900,4900,4900,0,0,153,106,1269.37,-0.1,127.8,1,0.333,0
2.15,0.3269,13,0,0,5.9169,46.0924,0,399.8234,9,0.1377,10000,32.81481897,-111.8321614,31.2,11.5,0.59,492,491,5.9,-0.02,-0.03,-0.97,0.7,2.1,-0.2,51.82,0.6,-0.1,0,1764,0,13.2,75,46,0.98,23,22,24,24.4,22.9,23.6,21.4,4900,4900,4900,4900,4900,0,0,153,106,1288.53,-0.1,127.8,1,0.333,0
2.2,0.2912,13,0,0,5.3324,58.9999,0,399.8153,9,0.1297,10000,32.81481904,-111.8321613,31.2,11.6,0.52,493,493,5.91,-0.03,-0.03,-0.97,0.8,2.1,-0.2,51.5,0.6,-0.1,0,1750,0,13.3,75,46,0.98,23,22,24,24.3,22.7,23.6,21.6,4900,4900,4900,4900,4900,0,0,153,106,1305,-0.1,127.8,1,0.333,0
2.25,0.2215,13,0,0,3.1815,105.7953,0,399.808,9,0.1227,10000,32.81481903,-111.8321613,31.2,11.6,0.56,493,492,5.92,-0.04,-0.03,-0.98,0.8,2,-0.2,51.18,0.6,-0.1,0,1717,0,13.3,75,46,0.98,23,22,24,22.6,22.7,22.4,21.4,4900,4900,4900,4900,4900,0,0,153,106,1305,-0.1,127.8,1,0.333,0
2.3,0.1225,13,0,0,2.605,115.4154,0,399.8049,9,0.1248,10000,32.814819,-111.8321613,31.2,11.7,0.55,493,492,5.93,-0.04,-0.03,-0.97,0.8,2,-0.2,50.87,0.6,-0.1,0,1683,0,13.3,75,46,0.98,23,23,24,20.9,22.7,21.2,21.1,4900,4900,4900,4900,4900,0,0,153,106,1305,-0.1,127.8,1,0.333,0
2.35,0.0576,13,0,0,15.856,100.6959,0,399.8183,9,0.12,10000,32.81481903,-111.8321612,31.2,11.8,0.52,493,492,5.94,-0.04,-0.03,-0.97,0.8,2,-0.2,50.55,0.6,-0.1,0,1650,0,13.3,75,46,0.98,23,23,24,19.3,22.7,20,20.8,4900,4900,4900,4900,4900,0,0,153,106,1305,-0.1,127.8,1,0.333,0
2.4,0.0536,13,0,0,19.1637,104.9159,0,399.8124,9,0.1205,10000,32.81481906,-111.8321613,31.2,11.8,0.52,494,492,5.95,-0.04,-0.04,-0.97,0.9,2,-0.3,50.23,0.6,-0.1,0,1615,0,13.3,75,46,0.98,23,23,24,17.8,22.5,18.9,20.5,4900,4900,4900,4900,4900,0,0,153,106,1304.22,-0.1,127.8,1,0.333,0
2.45,0.1642,13,0,0,13.567,170.1446,0,399.8169,9,0.1373,10000,32.81481893,-111.8321613,31.2,11.9,0.51,493,492,5.96,-0.04,-0.04,-0.96,0.8,2,-0.3,49.91,0.7,-0.1,0,1572,0,13.3,75,46,0.98,23,23,24,17.6,21.1,18.6,19.5,4900,4900,4900,4900,4900,0,0,153,106,1297.76,-0.1,127.8,1,0.333,0
2.5,0.2082,13,0,0,8.2979,159.0861,0,399.8077,9,0.1353,10000,32.81481893,-111.8321612,31.2,11.9,0.54,493,491,5.97,-0.03,-0.03,-0.97,0.8,2.1,-0.2,49.59,0.6,-0.1,0,1529,0,13.3,75,46,0.98,24,24,25,17.4,19.7,18.3,18.6,4900,4900,4900,4900,4900,0,0,153,106,1291.29,-0.1,127.8,1,0.333,0
2.55,0.1202,13,0,0,13.8047,141.7326,0,399.799,9,0.1245,10000,32.81481892,-111.8321612,31.2,12,0.7,493,490,5.98,-0.03,-0.03,-0.98,0.7,2.2,-0.3,49.27,0.6,-0.2,0,1487,0,13.3,75,46,0.98,24,24,25,17.3,18.3,18,17.6,4900,4900,4900,4900,4900,0,0,153,106,1284.82,-0.1,127.8,1,0.333,0
2.6,0.1275,13,0,0,16.5313,31.599,0,399.8037,8.9975,0.1398,10000,32.814819,-111.8321612,31.2,12.1,0.88,493,491,5.99,-0.03,-0.02,-0.96,0.7,2.2,-0.3,48.95,0.6,-0.2,0,1470,0,13.3,75,46,0.98,24,24,25,17.4,17.4,18,17.2,4900,4900,4900,4900,4900,0,0,153,106,1276.46,-0.1,127.8,1,0.333,0
2.65,0.0558,13,0,0,28.8009,-28.1191,0,399.8068,8.9,0.13,10000,32.81481899,-111.8321612,31.2,12.1,1.02,493,490,6,-0.03,-0.02,-0.93,0.7,2.3,-0.3,48.63,0.6,-0.2,0,1689,0,13.3,75,46,0.98,25,25,26,20.2,20.5,20.5,20.7,4900,4900,4900,4900,4900,0,0,153,106,1251.09,-0.1,127.8,1,0.333,0
2.7,0.1111,13,0,0,12.4263,-110.2181,0,399.8061,8.9,0.13,10000,32.81481893,-111.8321612,31.2,12.2,1.12,493,491,6.01,-0.04,-0.03,-0.93,0.7,2.4,-0.3,48.32,0.6,-0.2,0,1907,0,13.3,75,46,0.98,27,26,28,22.9,23.7,22.9,24.3,4900,4900,4900,4900,4900,0,0,153,106,1225.72,-0.1,127.8,1,0.333,0
2.75,0.1045,13,0,0,16.5795,53.4473,0,399.7899,8.9,0.1222,10000,32.81481898,-111.8321611,31.2,12.3,1.16,493,492,6.02,-0.06,-0.01,-0.91,0.7,2.4,-0.3,48,0.7,-0.1,0,2126,0,13.3,75,46,0.98,28,26,29,25.7,26.8,25.4,27.8,4900,4900,4900,4900,4900,0,0,153,106,1200.34,-0.1,127.8,1,0.333,0
2.8,0.2581,13,0,0,5.8862,103.1065,0,399.8031,8.9,0.12,10000,32.8148189,-111.832161,31.2,12.3,1.2,494,492,6.03,-0.01,-0.04,-0.99,0.7,2.1,-0.2,47.68,0.7,-0.1,0,2339,0,13.3,75,46,0.98,29,27,30,28.5,29.8,27.8,31.2,4900,4900,4900,4900,4900,0,0,153,106,1176.31,-0.1,127.8,1,0.333,0
2.85,0.0837,13,0,0,19.0055,46.5963,0,399.8048,8.9,0.1173,10000,32.81481897,-111.832161,31.2,12.4,1.22,494,491,6.04,-0.05,-0.01,-0.95,0.8,2.1,-0.2,47.36,0.7,-0.1,0,2485,0,13.3,75,46,0.98,27,26,28,31.2,31.8,31,32.7,4900,4900,4900,4900,4900,0,0,153,106,1167.7,-0.1,127.8,1,0.333,0
2.9,0.0973,13,0,0,3.7513,-121.1786,0,399.7841,8.9,0.1258,10000,32.81481895,-111.8321611,31.2,12.4,1.15,493,491,6.05,-0.05,-0.02,-0.96,0.9,2.1,-0.3,47.04,0.7,-0.1,0,2631,0,13.4,75,46,0.98,26,25,26,33.9,33.8,34.1,34.3,4900,4900,4900,4900,4900,0,0,153,106,1159.09,-0.1,127.8,1,0.333,0
2.95,0.0623,13,0,0,12.0159,-110.363,0,399.7802,8.9,0.1245,10000,32.81481893,-111.8321611,31.2,12.5,1.08,493,491,6.05,-0.03,-0.03,-0.99,0.8,2.1,-0.2,46.72,0.7,-0.1,0,2761,0,13.4,75,46,0.98,24,24,24,36.3,35.6,37,35.6,4900,4900,4900,4900,4900,0,0,153,106,1152.15,-0.1,127.8,1,0.333,0
3,0.1342,13,0,0,1.5909,106.4788,0,399.7866,8.9,0.1205,10000,32.81481889,-111.832161,31.2,12.6,0.98,493,491,6.07,-0.02,-0.03,-1,0.8,2.1,-0.2,46.4,0.7,-0.1,0,2639,0,13.4,75,46,0.98,23,23,23,34.9,34.3,35.6,34.7,4900,4900,4900,4900,4900,0,0,153,106,1171.3,-0.1,127.8,1,0.333,0
3.05,0.0965,13,0,0,13.8132,6.3836,0,399.7843,8.9,0.14,10000,32.81481901,-111.832161,31.2,12.6,0.9,493,492,6.08,-0.02,-0.03,-0.99,0.7,2,-0.2,46.27,0.6,-0.1,0,2517,0,13.3,75,46,0.98,22,22,22,33.5,33,34.2,33.7,4900,4900,4900,4900,4900,0,0,153,106,1190.46,-0.1,127.8,1,0.333,0
3.1,0.0664,13,0,0,8.533,14.7318,0,399.7843,8.9,0.14,10000,32.81481901,-111.832161,31.2,12.6,0.8,493,491,6.08,-0.02,-0.03,-0.99,0.7,2.1,-0.1,46.38,0.6,-0.1,0,2395,0,13.3,75,46,0.98,22,21,21,32.1,31.7,32.8,32.7,4900,4900,4900,4900,4900,0,0,153,106,1209.61,-0.1,127.8,1,0.333,0
3.15,0.046,13,0,0,-23.676,137.3254,0,399.7801,8.9,0.1478,10000,32.81481895,-111.832161,31.2,12.6,0.78,492,492,6.09,-0.02,-0.03,-0.98,0.8,2.1,-0.2,46.49,0.6,-0.1,0,2274,0,13.3,75,46,0.98,21,20,20,30.8,30.3,31.5,31.7,4900,4900,4900,4900,4900,0,0,153,106,1227.49,-0.1,127.8,1,0.333,0
3.2,0.2065,13,0,0,-7.0157,-85.4534,0,399.7635,8.9,0.1203,10000,32.81481902,-111.8321611,31.2,12.6,0.76,492,492,6.11,-0.04,-0.03,-0.97,0.8,1.9,-0.2,46.61,0.6,-0.1,0,2172,0,13.3,75,46,0.98,21,21,21,29.7,29.2,30.2,30.2,4900,4900,4900,4900,4900,0,0,153,106,1214.81,-0.1,127.8,1,0.333,0
3.25,0.0522,13,0,0,13.2054,-74.1322,0,399.7743,8.9,0.1328,10000,32.81481891,-111.832161,31.2,12.6,0.68,493,492,6.12,-0.04,-0.03,-0.97,0.8,1.9,-0.3,46.72,0.6,-0.1,0,2070,0,13.3,75,46,0.98,22,21,21,28.7,28.1,29,28.6,4900,4900,4900,4900,4900,0,0,153,106,1202.12,-0.1,127.8,1,0.333,0
3.3,0.0267,13,0,0,-5.0901,-8.1239,0,399.7806,8.9,0.14,10000,32.81481903,-111.832161,31.2,12.6,0.62,493,492,6.12,-0.03,-0.04,-0.98,0.8,2.1,-0.3,46.84,0.7,-0.1,0,1969,0,13.3,75,46,0.98,22,22,22,27.6,27,27.8,27,4900,4900,4900,4900,4900,0,0,153,106,1189.43,-0.1,127.8,1,0.333,0
3.35,0.2432,13,0,0,3.0862,12.8699,0,399.786,8.9,0.14,10000,32.81481908,-111.8321609,31.2,12.6,0.62,494,492,6.13,-0.03,-0.03,-0.98,0.8,2.1,-0.2,46.95,0.7,-0.1,0,1868,0,13.3,75,46,0.98,22,22,22,26.6,25.9,26.6,25.5,4900,4900,4900,4900,4900,0,0,153,106,1177,-0.1,127.8,1,0.333,0
3.4,0.4318,13,0,0,3.825,33.0287,0,399.7779,8.8,0.1402,10000,32.81481926,-111.8321607,31.2,12.6,0.58,493,492,6.14,-0.03,-0.03,-0.98,0.7,2.1,-0.2,47.07,0.7,-0.1,0,1809,0,13.3,75,46,0.98,22,22,22,24.7,24.2,24.7,23.9,4900,4900,4900,4900,4900,0,0,153,106,1177,-0.1,127.8,1,0.333,0
3.45,0.1198,13,0,0,3.0367,-17.0698,0,399.7772,8.8,0.1472,10000,32.81481913,-111.8321609,31.1,12.6,0.48,492,490,6.15,-0.03,-0.03,-0.98,0.8,2.1,-0.2,47.18,0.6,-0.2,0,1751,0,13.3,75,46,0.98,23,23,23,22.9,22.5,22.9,22.3,4900,4900,4900,4900,4900,0,0,153,106,1177,-0.1,127.8,1,0.333,0
3.5,0.0949,13,0,0,4.2413,-137.641,0,399.7812,8.8,0.14,10000,32.81481903,-111.8321609,31.1,12.6,0.46,493,493,6.16,-0.04,-0.04,-0.98,0.8,2,-0.2,47.29,0.6,-0.2,0,1692,0,13.3,75,46,0.98,23,23,23,21,20.9,21,20.8,4900,4900,4900,4900,4900,0,0,153,106,1177,-0.1,127.8,1,0.333,0
3.55,0.0801,13,0,0,15.4997,-113.0285,0,399.7853,8.8,0.1168,10000,32.81481909,-111.8321609,31.1,12.6,0.43,493,493,6.17,-0.04,-0.04,-0.98,0.8,2.1,-0.3,47.41,0.6,-0.1,0,1634,0,13.3,75,46,0.98,23,23,23,19.2,19.2,19.2,19.2,4900,4900,4900,4900,4900,0,0,153,106,1177,-0.1,127.8,1,0.333,0
3.6,0.0541,13,0,0,9.3454,157.116,0,399.7758,8.8,0.14,10000,32.81481916,-111.8321608,31.1,12.6,0.4,492,491,6.17,-0.03,-0.04,-0.97,0.7,2.1,-0.2,47.52,0.6,-0.1,0,1566,0,13.3,75,46,0.98,24,23,24,18.1,18.1,18.1,18.1,4900,4900,4900,4900,4900,0,0,153,106,1177,-0.1,127.8,1,0.333,0
3.65,0.1445,13,0,0,-0.4568,-50.3579,0,399.7824,8.8,0.14,10000,32.81481902,-111.8321609,31.1,12.7,0.34,492,490,6.19,-0.03,-0.03,-0.97,0.7,2.1,-0.2,47.64,0.6,-0.2,0,1498,0,13.2,75,46,0.98,24,24,24,17,17.1,17,17.1,4900,4900,4900,4900,4900,0,0,153,106,1177,-0.1,127.8,1,0.333,0
3.7,0.0923,13,0,0,5.8253,104.7272,0,399.7887,8.8,0.1347,10000,32.81481904,-111.8321608,31.1,12.7,0.33,492,491,6.2,-0.03,-0.03,-0.97,0.7,2.1,-0.2,47.75,0.6,-0.2,0,1430,0,13.2,75,46,0.98,25,24,25,15.8,16.1,15.8,16.1,4900,4900,4900,4900,4900,0,0,153,106,1177,-0.1,127.8,1,0.333,0
3.75,0.1919,13,0,0,3.3377,2.8232,0,399.7809,8.8,0.1377,10000,32.81481922,-111.8321607,31.1,12.7,0.39,492,492,6.21,-0.03,-0.03,-0.98,0.8,2.1,-0.2,47.86,0.6,-0.1,0,1361,0,13.2,75,46,0.98,26,25,26,14.7,15,14.7,15,4900,4900,4900,4900,4900,0,0,153,106,1177,-0.1,127.8,1,0.333,0
3.8,0.1609,13,0,0,7.5826,-8.5829,0,399.7725,8.8,0.14,10000,32.81481919,-111.8321607,31.1,12.7,0.42,493,491,6.21,-0.03,-0.03,-0.98,0.8,2.1,-0.2,47.98,0.6,-0.1,0,1361,0,13.2,75,46,0.98,27,26,27,14.6,14.8,14.6,14.8,4900,4900,4900,4900,4900,0,0,153,106,1193.55,-0.1,127.8,1,0.333,0
3.85,0.1706,13,0,0,0.5635,27.4582,0,399.7762,8.8,0.1427,10000,32.81481919,-111.8321607,31.1,12.7,0.41,493,492,6.22,-0.03,-0.03,-0.98,0.8,2.1,-0.2,48.09,0.6,-0.1,0,1363,0,13.2,75,46,0.98,27,26,27,14.4,14.5,14.4,14.5,4900,4900,4900,4900,4900,0,0,153,106,1210.44,-0.1,127.8,1,0.333,0
3.9,0.1171,13,0,0,19.7163,5.3274,0,399.7788,8.8,0.1447,10000,32.8148192,-111.8321607,31.1,12.7,0.46,493,493,6.23,-0.03,-0.03,-0.98,0.8,2.1,-0.2,48.21,0.6,-0.1,0,1364,0,13.2,75,46,0.98,28,27,28,14.3,14.3,14.3,14.3,4900,4900,4900,4900,4900,0,0,153,106,1227.32,-0.1,127.8,0,0.333,0
3.95,0.1197,13,0,0,21.4998,-79.2447,0,399.7791,8.8,0.1245,10000,32.81481923,-111.8321608,31.1,12.7,0.49,492,492,6.24,-0.04,-0.03,-0.98,0.7,2.1,-0.2,48.32,0.6,-0.1,0,1399,0,13.3,75,46,0.98,27,27,28,14.6,14.7,14.6,14.8,4900,4900,4900,4900,4900,0,0,153,106,1228,-0.1,127.8,0,0.333,0
4,0.1792,13,0,0,17.9227,-102.0511,0,399.7888,8.8,0.1198,10000,32.8148192,-111.8321608,31.1,12.7,0.49,492,491,6.24,-0.04,-0.03,-0.97,0.8,2.1,-0.2,48.43,0.6,-0.1,0,1435,0,13.3,75,46,0.98,27,26,27,15,15.2,14.8,15.3,4900,4900,4900,4900,4900,0,0,153,106,1228,-0.1,127.8,0,0.333,0
4.05,0.1175,13,0,0,9.7561,-96.4466,0,399.7888,8.8,0.11,10000,32.8148192,-111.8321608,31.1,12.7,0.51,493,492,6.25,-0.04,-0.02,-0.98,0.8,2.1,-0.2,48.5,0.6,-0.1,0,1471,0,13.4,75,46,0.98,26,26,27,15.3,15.6,15.1,15.8,4900,4900,4900,4900,4900,0,0,153,106,1228,-0.1,127.8,0,0.333,0
4.1,0.1135,13,0,0,11.8916,7.9861,0,399.7815,8.8,0.1152,10000,32.81481924,-111.8321607,31.1,12.7,0.5,493,492,6.24,-0.03,-0.02,-0.98,0.8,2.1,-0.2,48.52,0.7,-0.1,0,1507,0,13.5,75,46,0.98,25,25,26,15.7,16.1,15.4,16.4,4900,4900,4900,4900,4900,0,0,153,106,1228,-0.1,127.8,0,0.333,0
4.15,0.125,13,0,0,15.5046,-55.0067,0,399.7833,8.8,0.12,10000,32.81481923,-111.8321607,31.1,12.7,0.5,494,492,6.24,-0.03,-0.02,-0.97,0.8,2,-0.3,48.53,0.7,-0.1,0,1483,0,13.5,75,46,0.98,25,25,26,15.9,16.2,15.6,16.4,4900,4900,4900,4900,4900,0,0,153,106,1228,-0.1,127.8,0,0.333,0
4.2,0.1424,13,0,0,18.4362,-95.7435,0,399.7987,8.7,0.1203,10000,32.81481924,-111.8321607,31.1,12.7,0.46,492,491,6.24,-0.02,-0.03,-0.97,0.8,2,-0.2,48.54,0.7,-0.1,0,1455,0,13.5,75,46,0.98,25,25,26,16,16.2,15.7,16.4,4900,4900,4900,4900,4900,0,0,153,106,1228,-0.1,127.8,0,0.333,0
4.25,0.0724,13,0,0,22.3067,159.8371,0,399.786,8.7,0.13,10000,32.81481911,-111.8321607,31.1,12.7,0.42,493,492,6.24,-0.02,-0.04,-0.97,0.7,2,-0.2,48.55,0.7,-0.1,0,1427,0,13.5,75,46,0.98,25,24,25,16.2,16.3,15.9,16.4,4900,4900,4900,4900,4900,0,0,153,106,1228,-0.1,127.8,0,0.333,0
4.3,0.0664,13,0,0,3.4859,107.6468,0,399.7791,8.7,0.13,10000,32.8148192,-111.8321607,31.1,12.8,0.38,492,493,6.24,-0.03,-0.03,-0.98,0.7,2.1,-0.1,48.56,0.6,-0.1,0,1399,0,13.5,75,46,0.98,25,24,25,16.4,16.4,16.1,16.4,4900,4900,4900,4900,4900,0,0,153,106,1228,-0.1,127.8,0,0.333,0
4.35,0.146,13,0,0,5.4851,62.3151,0,399.7918,8.7,0.13,10000,32.81481926,-111.8321606,31.1,12.8,0.36,492,492,6.24,-0.04,-0.03,-0.98,0.8,2.1,-0.2,48.57,0.6,-0.1,0,1350,0,13.5,75,46,0.98,25,24,25,16,15.9,15.8,15.9,4900,4900,4900,4900,4900,0,0,153,106,1228,-0.1,127.8,0,0.333,0
4.4,0.1339,13,0,0,18.06,124.2524,0,399.7956,8.7,0.1205,10000,32.81481926,-111.8321606,31.1,12.8,0.34,493,490,6.24,-0.04,-0.03,-0.98,0.8,2.2,-0.3,48.58,0.6,-0.1,0,1299,0,13.5,75,46,0.98,25,24,25,15.6,15.4,15.6,15.4,4900,4900,4900,4900,4900,0,0,153,106,1228,-0.1,127.8,0,0.333,0
4.45,0.1158,13,0,0,9.5962,130.7478,0,399.7856,8.7,0.14,10000,32.81481914,-111.8321605,31.1,12.8,0.3,494,491,6.24,-0.04,-0.03,-0.98,0.8,2.1,-0.2,48.59,0.7,-0.1,0,1248,0,13.4,75,46,0.98,25,25,26,15.2,14.9,15.3,14.9,4900,4900,4900,4900,4900,0,0,153,106,1228,-0.1,127.8,0,0.333,0
4.5,0.1527,13,0,0,9.3343,41.6967,0,399.7873,8.7,0.1347,10000,32.81481921,-111.8321605,31.1,12.8,0.38,493,492,6.18,-0.02,-0.04,-0.99,0.7,2.1,-0.2,48.6,0.7,-0.1,0,1197,0,13.4,75,46,0.98,25,25,26,14.7,14.3,15,14.3,4900,4900,4900,4900,4900,0,0,153,106,1228,-0.1,127.8,0,0.333,0
4.55,0.1027,13,0,0,13.3948,-16.3951,0,399.7873,8.7,0.13,10000,32.81481921,-111.8321605,31.1,12.8,0.45,493,491,5.96,0.02,-0.01,-1.02,0.7,2.3,-0.3,48.61,0.7,-0.1,0,1216,0,13.4,75,46,0.98,26,32,26,14.6,14.3,14.8,14.3,4900,4900,4900,4900,4900,0,0,153,106,1228,-0.1,127.8,0,0.333,0
4.6,0.0392,13,0,0,31.9038,-4.4422,0,399.7978,8.7,0.1107,10000,32.81481914,-111.8321605,31.1,12.8,0.85,492,491,5.81,-0.04,0.04,-1.03,0.9,2,-0.3,48.62,0.6,-0.1,0,1242,0,13.4,75,46,0.98,26,40,26,14.5,14.3,14.7,14.3,4900,4900,4900,4900,4900,0,0,153,106,1228,-0.1,127.8,0,0.333,0
4.65,0.2151,13,0,0,-2.3651,-79.3296,0,399.7812,8.7,0.14,10000,32.81481911,-111.8321605,31.2,12.8,1.51,492,492,5.76,-0.07,0.01,-1.05,0.8,1.8,-0.2,48.64,0.6,-0.1,0,1268,0,13.4,75,46,0.98,27,47,27,14.4,14.3,14.5,14.3,4900,4900,4900,4900,4900,0,0,153,106,1228,-0.1,127.8,0,0.333,0
4.7,0.3422,13,0,0,2.5824,150.348,0,399.7804,8.7,0.1295,10000,32.81481903,-111.8321604,31.2,12.8,1.62,492,491,5.76,0.04,-0.1,-0.97,0.7,2.1,-0.2,48.65,0.6,-0.1,0,1295,0,13.4,75,46,0.98,28,55,27,14.3,14.3,14.3,14.3,4900,4900,4900,4900,4900,0,0,153,106,1228,-0.1,127.8,0,0.333,0
4.75,0.1039,13,0,0,26.3095,27.7958,0,399.7817,8.7,0.1277,10000,32.81481911,-111.8321604,31.2,12.9,1.48,492,491,5.77,0.11,-0.13,-0.95,0.7,2.3,-0.3,48.66,0.6,-0.1,0,1713,0,13.5,75.2,46,0.98,25,47,24,16.9,16.9,16.7,16.7,4900,4900,4900,4900,4900,0,0,153,106,1211.14,-0.1,127.8,0,0.333,0
4.8,0.0888,13,0,0,9.2503,-65.6188,0,399.7821,8.7,0.1107,10000,32.81481913,-111.8321605,31.2,12.9,1.37,492,491,5.77,0.01,-0.05,-0.96,0.8,2.1,-0.3,48.67,0.6,-0.2,0,2185,0,13.5,75.5,46,0.98,22,37,21,19.9,19.9,19.5,19.5,4900,4900,4900,4900,4900,0,0,153,106,1191.99,-0.1,127.8,0,0.333,0
4.85,0.1279,13,0,0,13.8804,0.1916,0,399.7897,8.7,0.14,10000,32.81481909,-111.8321604,31.2,12.9,1.3,492,490,5.77,-0.04,0,-0.98,0.8,2,-0.1,48.68,0.6,-0.2,0,2656,0,13.6,75.7,46,0.98,19,27,18,22.8,22.8,22.3,22.3,4900,4900,4900,4900,4900,0,0,153,106,1172.84,-0.1,127.8,0,0.333,0
4.9,0.1585,13,0,0,9.4503,31.0015,0,399.788,8.7,0.14,10000,32.8148191,-111.8321604,31.2,12.9,1.2,493,491,5.78,-0.02,-0.03,-1,0.7,2,-0.1,48.69,0.6,-0.2,0,3128,0,13.7,76,46,0.98,15,17,15,25.8,25.8,25.1,25.1,4900,4900,4900,4900,4900,0,0,153,106,1153.68,-0.1,127.8,0,0.333,0
4.95,0.0968,13,0,0,5.1802,81.1218,0,399.7848,8.6225,0.1168,10000,32.81481903,-111.8321604,31.2,12.9,1.09,493,489,5.78,0.02,-0.05,-1.03,0.7,2,-0.2,48.7,0.6,-0.2,0,2994,1,13.7,76,46,0.98,16,17,16,26.3,26.3,25.8,25.8,4900,4900,4900,4900,4900,0,0,153,106,1172.93,-0.1,127.8,0,0.333,0
5,0.238,13,0,0,4.1172,94.3667,0,399.7811,8.6,0.1205,10000,32.81481903,-111.8321603,31.2,12.9,0.98,493,490,5.78,0.01,-0.04,-1.01,0.8,2.1,-0.2,48.71,0.6,-0.2,0,2762,1,13.7,76,46,0.98,16,17,17,26.4,26.4,26.2,26.2,4900,4900,4900,4900,4900,0,0,153,106,1198.42,-0.1,127.8,0,0.333,0
5.05,0.1387,13,0,0,8.3966,73.8518,0,399.776,8.6,0.14,10000,32.814819,-111.8321603,31.2,12.9,0.9,492,492,5.79,-0.02,-0.04,-0.98,0.8,2,-0.2,48.81,0.6,-0.2,0,2530,1,13.7,76,46,0.98,17,18,18,26.6,26.6,26.5,26.5,4900,4900,4900,4900,4900,0,0,153,106,1223.92,-0.1,127.8,0,0.333,0
5.1,0.1803,13,0,0,1.1418,-146.3916,0,399.7625,8.6,0.14,10000,32.81481892,-111.8321604,31.2,12.9,0.81,492,493,5.79,-0.04,-0.03,-0.97,0.8,2,-0.2,49.03,0.6,-0.1,0,2380,1,13.7,76,46,0.98,18,18,19,26.4,26.4,26.4,26.4,4900,4900,4900,4900,4900,0,0,153,106,1222.78,-0.1,127.8,0,0.333,0
5.15,0.1571,13,0,0,1.7262,-88.6776,0,399.7631,8.6,0.1245,10000,32.814819,-111.8321605,31.2,12.9,0.76,494,493,5.79,-0.03,-0.02,-0.96,0.7,2,-0.2,49.25,0.7,-0.1,0,2244,1,13.7,76,46,0.98,18,19,19,26.1,26.1,26.1,26.1,4900,4900,4900,4900,4900,0,0,153,106,1216.56,-0.1,127.8,0,0.333,0
5.2,0.0732,13,0,0,32.1624,1.8346,0,399.7734,8.6,0.1398,10000,32.81481907,-111.8321604,31.2,12.9,0.7,494,491,5.79,-0.01,-0.02,-0.97,0.8,2,-0.2,49.47,0.7,-0.1,0,2109,1,13.7,76,46,0.98,19,19,20,25.8,25.8,25.8,25.8,4900,4900,4900,4900,4900,0,0,153,106,1210.34,-0.1,127.8,0,0.333,0
5.25,0.1037,13,0,0,4.1477,89.3084,0,399.7721,8.6,0.1273,10000,32.81481894,-111.8321603,31.2,12.8,0.68,493,492,5.78,0,-0.02,-0.97,0.8,2.1,-0.2,49.69,0.7,-0.1,0,1974,1,13.7,76,46,0.98,20,20,21,25.5,25.5,25.5,25.5,4900,4900,4900,4900,4900,0,0,153,106,1204.12,-0.1,127.8,0,0.333,0
5.3,0.0624,13,0,0,-2.4619,131.2918,0,399.7514,8.6,0.1147,10000,32.81481893,-111.8321604,31.2,12.8,0.6,492,491,5.78,-0.01,-0.04,-0.98,0.8,2.2,-0.2,49.91,0.6,-0.1,0,1885,1,13.7,76,46,0.98,20,20,21,25.3,25.3,25.3,25.3,4900,4900,4900,4900,4900,0,0,153,106,1203,-0.1,127.8,0,0.333,0
5.35,0.014,13,0,0,-0.5539,29.5407,0,399.7475,8.6,0.1332,10000,32.8148189,-111.8321604,31.2,12.8,0.61,492,491,5.79,-0.01,-0.04,-0.98,0.7,2.2,-0.2,50.13,0.6,-0.1,0,1805,1,13.7,76,46,0.98,21,21,21,25,25,25,25,4900,4900,4900,4900,4900,0,0,153,106,1203,-0.1,127.8,0,0.333,0
5.4,0.0391,13,0,0,32.1913,-0.2416,0,399.7625,8.6,0.1398,10000,32.81481892,-111.8321604,31.2,12.8,0.61,492,492,5.79,-0.02,-0.03,-0.98,0.7,2.2,-0.2,50.35,0.6,-0.1,0,1725,1,13.6,76,46,0.98,21,21,22,24.8,24.8,24.8,24.8,4900,4900,4900,4900,4900,0,0,153,106,1203,-0.1,127.8,0,0.333,0
5.45,0.1167,13,0,0,5.6608,-7.0072,0,399.7661,8.6,0.1273,10000,32.81481893,-111.8321603,31.2,12.8,0.54,492,491,5.79,-0.01,-0.03,-0.98,0.7,2.2,-0.2,50.57,0.6,-0.1,0,1645,1,13.6,76,46,0.98,22,22,22,24.5,24.5,24.5,24.5,4900,4900,4900,4900,4900,0,0,153,106,1203,-0.1,127.8,0,0.333,0
5.5,0.0567,13,0,0,8.0044,-92.5823,0,399.77,8.6,0.1305,10000,32.81481887,-111.8321603,31.2,12.8,0.53,492,490,5.79,0,-0.05,-0.98,0.7,2.2,-0.2,50.79,0.6,-0.1,0,1620,1,13.6,76,46,0.98,22,22,22,24.3,24.3,24.2,24.2,4900,4900,4900,4900,4900,0,0,153,106,1197.83,-0.1,127.8,0,0.333,0
5.55,0.1393,13,0,0,9.4751,-166.9285,0,399.7588,8.6,0.14,10000,32.81481884,-111.8321604,31.2,12.7,0.55,493,491,5.79,-0.01,-0.04,-0.98,0.7,2.2,-0.2,51.01,0.7,-0.2,0,1608,1,13.6,76,46,0.98,23,22,23,24,24,23.9,23.9,4900,4900,4900,4900,4900,0,0,153,106,1191.36,-0.1,127.8,0,0.333,0
5.6,0.0509,13,0,0,8.9705,158.4891,0,399.7647,8.6,0.1395,10000,32.8148188,-111.8321603,31.2,12.7,0.5,492,491,5.79,-0.02,-0.03,-0.98,0.7,2.2,-0.2,51.23,0.6,-0.1,0,1596,1,13.6,76,46,0.98,23,23,23,23.7,23.7,23.5,23.5,4900,4900,4900,4900,4900,0,0,153,106,1184.89,-0.1,127.8,0,0.333,0
5.65,0.0509,13,0,0,-11.3303,-10.54,0,399.7599,8.6,0.1227,10000,32.8148188,-111.8321603,31.2,12.7,0.53,492,491,5.79,-0.01,-0.03,-0.98,0.8,2.2,-0.2,51.46,0.6,-0.1,0,1585,1,13.6,76,46,0.98,24,23,24,23.5,23.5,23.2,23.2,4900,4900,4900,4900,4900,0,0,153,106,1178.42,-0.1,127.8,0,0.333,0
5.7,0.0776,13,0,0,9.5059,100.0406,0,399.7533,8.6,0.1353,10000,32.81481876,-111.8321603,31.2,12.7,0.53,493,492,5.79,-0.01,-0.03,-0.98,0.8,2.1,-0.2,51.68,0.6,-0.1,0,1561,1,13.6,76,46,0.98,24,23,24,23.1,23.1,23,23,4900,4900,4900,4900,4900,0,0,153,106,1177,-0.1,127.8,0,0.333,0
5.75,0.1477,13,0,0,5.1802,81.1218,0,399.7589,8.5225,0.1245,10000,32.81481873,-111.8321602,31.2,12.7,0.52,494,492,5.79,0,-0.03,-0.97,0.8,2.1,-0.3,51.9,0.7,-0.1,0,1535,1,13.6,76,46,0.98,24,23,24,22.8,22.8,22.8,22.8,4900,4900,4900,4900,4900,0,0,153,106,1177,-0.1,127.8,0,0.333,0
5.8,0.2332,13,0,0,8.8459,107.2239,0,399.769,8.5,0.12,10000,32.81481877,-111.8321602,31.2,12.6,0.54,493,492,5.79,0,-0.03,-0.98,0.8,2.1,-0.3,52.12,0.7,-0.1,0,1508,1,13.5,76,46,0.98,24,24,24,22.4,22.4,22.6,22.6,4900,4900,4900,4900,4900,0,0,153,106,1177,-0.1,127.8,0,0.333,0
5.85,0.2631,13,0,0,1.5032,132.0119,0,399.7486,8.5,0.1227,10000,32.81481868,-111.8321601,31.2,12.6,0.53,493,492,5.79,0,-0.04,-0.98,0.7,2.1,-0.3,52.34,0.6,-0.1,0,1481,1,13.5,76,46,0.98,24,24,24,22.1,22.1,22.4,22.4,4900,4900,4900,4900,4900,0,0,153,106,1177,-0.1,127.8,0,0.333,0
5.9,0.3047,13,0,0,2.1758,149.1987,0,399.755,8.5,0.13,10000,32.81481864,-111.8321602,31.2,12.6,0.52,493,492,5.79,0.01,-0.03,-0.98,0.8,2.1,-0.4,52.56,0.6,-0.1,0,1477,1,13.5,76,46,0.98,24,24,24,21.9,21.9,22.3,22.3,4900,4900,4900,4900,4900,0,0,153,106,1177,-0.1,127.8,0,0.333,0
5.95,0.3371,13,0,0,6.3089,136.5853,0,399.7581,8.5,0.1222,10000,32.81481854,-111.8321601,31.2,12.6,0.53,493,492,5.79,0.01,-0.03,-0.98,0.8,2.1,-0.4,52.78,0.6,-0.1,0,1480,1,13.5,76,46,0.98,24,24,24,21.9,21.9,22.1,22.1,4900,4900,4900,4900,4900,0,0,153,106,1177,-0.1,127.8,0,0.333,0
6,0.2382,13,0,0,8.8837,106.1043,0,399.766,8.5,0.12,10000,32.81481848,-111.83216,31.2,12.6,0.53,493,492,5.79,0.01,-0.04,-0.97,0.8,2,-0.4,53,0.7,-0.1,0,1483,1,13.5,76,46,0.98,23,23,23,21.8,21.8,21.9,21.9,4900,4900,4900,4900,4900,0,0,153,106,1177,-0.1,127.8,0,0.333,0
6.05,0.4607,13,0,0,2.997,83.5644,0,399.7696,8.5,0.12,10000,32.81481861,-111.8321599,31.2,12.6,0.5,494,491,5.79,0.01,-0.04,-0.97,0.8,2,-0.3,53.03,0.7,-0.1,0,1486,1,13.5,76,46,0.98,23,23,23,21.7,21.7,21.7,21.7,4900,4900,4900,4900,4900,0,0,153,106,1177,-0.1,127.8,0,0.333,0
6.1,0.5563,13,0,0,2.6309,91.6993,0,399.762,8.5,0.12,10000,32.8148185,-111.8321597,31.2,12.6,0.54,494,491,5.79,0.02,-0.04,-0.98,0.8,2.1,-0.3,52.8,0.7,-0.1,0,1503,1,13.5,76,46,0.98,23,23,23,21.7,21.7,21.7,21.7,4900,4900,4900,4900,4900,0,0,153,106,1177,-0.1,127.8,0,0.333,0
6.15,0.6663,13,0,0,2.3259,96.9907,0,399.7618,8.5,0.12,10000,32.8148185,-111.8321596,31.2,12.6,0.52,494,492,5.79,0.03,-0.03,-0.98,0.8,2.1,-0.4,52.57,0.7,-0.1,0,1524,1,13.5,76,46,0.98,23,23,23,21.7,21.7,21.7,21.7,4900,4900,4900,4900,4900,0,0,153,106,1177,-0.1,127.8,0,0.333,0
6.2,0.7242,13,0,0,2.5397,108.9503,0,399.7607,8.5,0.12,10000,32.8148184,-111.8321594,31.2,12.6,0.49,494,492,5.79,0.02,-0.02,-0.99,0.8,2.2,-0.4,52.34,0.7,-0.1,0,1546,1,13.6,76,46,0.98,24,23,23,21.7,21.7,21.7,21.7,4900,4900,4900,4900,4900,0,0,153,106,1177,-0.1,127.8,0,0.333,0
6.25,0.7847,13,0,0,4.2671,108.8678,0,399.7738,8.5,0.12,10000,32.81481832,-111.8321594,31.2,12.6,0.46,494,492,5.79,0.03,-0.03,-0.98,0.8,2.2,-0.4,52.11,0.7,-0.1,0,1567,1,13.6,76,46,0.98,24,23,23,21.7,21.7,21.7,21.7,4900,4900,4900,4900,4900,0,0,153,106,1177,-0.1,127.8,0,0.333,0
6.3,0.7097,13,0,0,3.7986,112.1279,0,399.7608,8.5,0.12,10000,32.81481828,-111.8321593,31.2,12.6,0.45,494,492,5.79,0.03,-0.04,-0.98,0.8,2.1,-0.4,51.88,0.7,-0.1,0,1535,1,13.6,76,46,0.98,24,23,23,21.7,21.7,21.7,21.7,4900,4900,4900,4900,4900,0,0,153,106,1177,-0.1,127.8,0,0.333,0
6.35,0.7894,13,0,0,1.8674,110.3497,0,399.7578,8.5,0.12,10000,32.8148182,-111.8321592,31.2,12.7,0.48,493,492,5.8,0.02,-0.03,-0.98,0.8,2,-0.4,51.65,0.6,-0.1,0,1482,1,13.5,76,46,0.98,25,24,24,21.7,21.7,21.7,21.7,4900,4900,4900,4900,4900,0,0,153,106,1177,-0.1,127.8,0,0.333,0
6.4,0.9088,13,0,0,-0.9803,111.4841,0,399.7315,8.5,0.12,10000,32.81481824,-111.832159,31.2,12.7,0.48,493,492,5.8,0.02,-0.02,-0.98,0.8,2.1,-0.4,51.42,0.6,-0.1,0,1429,1,13.5,76,46,0.98,25,24,24,21.7,21.7,21.7,21.7,4900,4900,4900,4900,4900,0,0,153,106,1177,-0.1,127.8,0,0.333,0
6.45,1.0456,13,-0.0025,0.0123,0.3107,110.016,0,399.7306,8.5,0.12,10000,32.81481811,-111.8321589,31.2,12.7,0.49,494,491,5.79,0.03,-0.03,-0.97,0.8,2.1,-0.5,51.19,0.7,-0.1,0,1418,1,13.5,76,46,0.98,25,24,24,21.7,21.7,21.7,21.7,4900,4900,4900,4900,4900,0,0,153,106,1177,-0.1,127.8,0,0.333,0
6.5,1.0918,13,-0.0144,0.0433,0.9478,106.4091,0,399.7395,8.5,0.12,10000,32.81481804,-111.8321587,31.2,12.7,0.52,493,492,5.79,0.04,-0.03,-0.97,0.8,2.1,-0.4,50.96,0.7,-0.1,0,1425,1,13.5,76,46,0.98,25,24,24,21.7,21.7,21.7,21.7,4900,4900,4900,4900,4900,0,0,153,106,1177,-0.1,127.8,0,0.333,0
6.55,1.223,13,-0.0215,0.0568,1.1699,102.4325,0,399.7389,8.5,0.12,10000,32.81481801,-111.8321584,31.2,12.7,0.53,494,493,5.8,0.05,-0.04,-0.98,0.8,2.1,-0.4,50.73,0.7,-0.1,0,1432,1,13.6,76,46,0.98,25,24,24,21.7,21.7,21.7,21.7,4900,4900,4900,4900,4900,0,0,153,106,1177,-0.1,127.8,0,0.333,0
6.6,1.4287,13,-0.0058,0.0626,0.5601,106.0328,0,399.7321,8.5,0.12,10000,32.81481791,-111.8321581,31.2,12.7,0.57,494,492,5.79,0.04,-0.03,-0.98,0.7,2,-0.5,50.5,0.7,-0.1,0,1439,1,13.6,76,46,0.98,25,24,24,21.7,21.7,21.7,21.7,4900,4900,4900,4900,4900,0,0,153,106,1177,-0.1,127.8,0,0.333,0
6.65,1.5184,13,-0.001,0.0545,-0.5213,102.1027,0,399.7189,8.5,0.12,10000,32.81481784,-111.832158,31.2,12.7,0.59,493,492,5.79,0.04,-0.03,-0.97,0.8,2,-0.6,50.27,0.6,-0.1,0,1482,1,13.6,76,46,0.98,25,24,24,21.7,21.7,21.7,21.7,4900,4900,4900,4900,4900,0,0,153,106,1181.4,-0.1,127.8,0,0.333,0
6.7,1.5855,13,-0.0034,0.0593,0.0602,100.2327,0,399.7236,8.5,0.12,10000,32.81481791,-111.8321576,31.2,12.8,0.61,492,492,5.8,0.02,-0.03,-0.98,0.8,2,-0.6,50.04,0.6,-0.1,0,1542,1,13.6,76,46,0.98,25,24,24,21.7,21.7,21.7,21.7,4900,4900,4900,4900,4900,0,0,153,106,1187.87,-0.1,127.8,0,0.333,0
6.75,1.4988,13,-0.0035,0.0632,0.1336,105.0352,0,399.7288,8.5,0.12,10000,32.81481775,-111.8321575,31.2,12.8,0.56,494,492,5.8,0.01,-0.03,-0.97,0.9,2.1,-0.6,49.81,0.7,-0.1,0,1602,1,13.6,76,46,0.98,24,24,24,21.7,21.7,21.7,21.7,4900,4900,4900,4900,4900,0,0,153,106,1194.33,-0.1,127.8,0,0.333,0
6.8,1.5449,13,0.0027,0.059,1.0915,110.2322,0,399.7495,8.5,0.12,10000,32.8148176,-111.8321573,31.2,12.8,0.57,494,494,5.8,0.02,-0.03,-0.97,0.9,2,-0.6,49.58,0.7,-0.2,0,1663,1,13.6,76,46,0.98,24,24,24,21.7,21.7,21.7,21.7,4900,4900,4900,4900,4900,0,0,153,106,1200.8,-0.1,127.8,0,0.333,0
6.85,1.8324,13,0.0032,0.0645,0.9879,108.1193,0,399.7365,8.4725,0.1173,10000,32.81481754,-111.8321569,31.2,12.8,0.57,493,491,5.79,0.03,-0.02,-0.98,0.9,2,-0.6,49.35,0.6,-0.1,0,1668,1,13.6,76,46,0.98,24,24,24,21.7,21.7,21.7,21.7,4900,4900,4900,4900,4900,0,0,153,106,1203,-0.1,127.8,0,0.333,0
6.9,2.0589,13,0.0123,0.0693,0.4571,104.1216,0,399.7238,8.4,0.11,10000,32.81481748,-111.8321566,31.2,12.8,0.56,493,492,5.79,0.04,-0.02,-0.98,0.9,2,-0.5,49.12,0.6,-0.1,0,1646,1,13.6,76,46,0.98,24,24,24,21.7,21.7,21.7,21.7,4900,4900,4900,4900,4900,0,0,153,106,1203,-0.1,127.8,0,0.333,0
6.95,2.0892,13,0.0175,0.0671,0.7405,104.4631,0,399.7404,8.4,0.11,10000,32.81481733,-111.8321563,31.2,12.8,0.63,493,492,5.8,0.02,-0.02,-0.98,1.1,2.1,-0.6,48.89,0.6,-0.1,0,1624,1,13.6,76,46,0.98,23,23,23,21.7,21.7,21.7,21.7,4900,4900,4900,4900,4900,0,0,153,106,1203,-0.1,127.8,0,0.333,0
7,2.1488,13,0.0088,0.0606,1.2022,104.6208,0,399.7422,8.4,0.12,10000,32.81481732,-111.8321559,31.2,12.8,0.64,495,492,5.8,0.01,-0.02,-0.99,1,2.1,-0.6,48.66,0.6,-0.1,0,1602,1,13.6,76,46,0.98,23,23,23,21.7,21.7,21.7,21.7,4900,4900,4900,4900,4900,0,0,153,106,1203,-0.1,127.8,0,0.333,0
7.05,2.4212,14,0.0012,0.0574,0.3493,102.5483,0,399.725,8.4,0.12,10000,32.81481721,-111.8321555,31.2,12.8,0.59,494,493,5.8,0.02,-0.03,-0.99,0.9,2.1,-0.5,48.52,0.7,-0.1,0,1599,1,13.6,76.2,46,0.98,23,23,23,21.7,21.7,21.7,21.7,4900,4900,4900,4900,4900,0,0,153,106,1203,-0.1,127.8,0,0.333,0
7.1,2.529,14,0.0169,0.0663,0.0491,107.4509,0,399.7253,8.4,0.12,10000,32.8148171,-111.8321551,31.2,12.8,0.61,495,492,5.8,0.02,-0.04,-0.99,0.9,2.1,-0.5,48.5,0.7,-0.1,0,1608,1,13.6,76.4,46,0.98,23,23,23,21.7,21.7,21.7,21.7,4900,4900,4900,4900,4900,0,0,153,106,1203,-0.1,127.8,0,0.333,0
7.15,2.4209,14,0.005,0.0482,-0.1154,110.6536,0,399.7164,8.4,0.12,10000,32.81481696,-111.8321548,31.2,12.8,0.64,494,492,5.8,0.02,-0.03,-0.99,0.8,2.1,-0.6,48.48,0.7,-0.1,0,1616,1,13.6,76.7,46,0.98,23,23,23,21.7,21.7,21.7,21.7,4900,4900,4900,4900,4900,0,0,153,106,1203,-0.1,127.8,0,0.333,0
7.2,2.4951,14,-0.0116,0.0321,-0.2227,107.8756,0,399.7064,8.4,0.12,10000,32.81481678,-111.8321545,31.2,12.8,0.59,493,491,5.8,0.02,-0.02,-0.97,0.9,2,-0.5,48.46,0.7,-0.1,0,1625,1,13.6,76.9,46,0.98,23,23,23,21.7,21.7,21.7,21.7,4900,4900,4900,4900,4900,0,0,153,106,1203,-0.1,127.8,0,0.333,0
7.25,2.585,14,0.005,0.0262,-0.0241,108.6105,0,399.7172,8.4,0.12,10000,32.81481672,-111.832154,31.2,12.8,0.59,492,491,5.8,0.02,-0.03,-0.97,0.9,2,-0.5,48.43,0.6,-0.2,0,1633,1,13.6,77,46,0.98,23,23,23,21.7,21.7,21.7,21.7,4900,4900,4900,4900,4900,0,0,153,106,1203,-0.1,127.8,0,0.333,0
7.3,2.6567,14,-0.0001,0.0324,0.5442,107.6476,0,399.726,8.4,0.12,10000,32.81481661,-111.8321536,31.2,12.8,0.63,495,492,5.8,0.01,-0.04,-0.97,0.9,2.1,-0.5,48.41,0.7,-0.2,0,1640,1,13.6,77,46,0.98,23,23,23,21.8,21.8,21.8,21.8,4900,4900,4900,4900,4900,0,0,153,106,1203,-0.1,127.8,0,0.333,0
7.35,2.7701,14,-0.0067,0.0512,-0.0152,103.8458,0,399.7148,8.4,0.12,10000,32.81481654,-111.8321531,31.2,12.8,0.62,496,492,5.8,0.01,-0.04,-0.97,0.7,2.2,-0.6,48.39,0.7,-0.1,0,1648,1,13.6,77,46,0.98,23,22,23,21.9,21.9,21.9,21.9,4900,4900,4900,4900,4900,0,0,153,106,1203,-0.1,127.8,0,0.333,0
7.4,2.8817,14,-0.0141,0.0572,0.7603,106.9627,0,399.7138,8.4,0.12,10000,32.81481642,-111.8321526,31.2,12.8,0.6,495,492,5.8,0.02,-0.03,-0.97,0.7,2.1,-0.5,48.37,0.7,-0.1,0,1655,1,13.6,77,46,0.98,23,22,23,22,22,22,22,4900,4900,4900,4900,4900,0,0,153,106,1203,-0.1,127.8,0,0.333,0
7.45,2.9837,14,-0.012,0.0561,0.8721,107.6771,0,399.7286,8.4,0.12,10000,32.8148163,-111.8321522,31.2,12.8,0.64,494,492,5.8,0.03,-0.03,-0.98,0.8,2.1,-0.5,48.35,0.7,-0.1,0,1682,1,13.6,77,46,0.98,23,22,23,22,22,22,22,4900,4900,4900,4900,4900,0,0,153,106,1203,-0.1,127.8,0,0.333,0
7.5,3.0001,14,-0.0008,0.0705,0.4759,103.3844,0,399.7072,8.4,0.12,10000,32.81481624,-111.8321518,31.2,12.8,0.6,494,491,5.8,0.03,-0.03,-0.97,0.9,2.2,-0.6,48.33,0.7,-0.1,0,1722,1,13.7,77,46,0.98,23,22,22,22,22,22,22,4900,4900,4900,4900,4900,0,0,153,106,1203,-0.1,127.8,0,0.333,0
7.55,3.0887,14,0.0027,0.0766,0.2304,103.034,0,399.7057,8.4,0.12,10000,32.81481614,-111.8321514,31.2,12.8,0.57,494,491,5.8,0.02,-0.04,-0.96,1,2.1,-0.6,48.3,0.7,-0.1,0,1762,1,13.7,77,46,0.98,23,22,22,22,22,22,22,4900,4900,4900,4900,4900,0,0,153,106,1203,-0.1,127.8,0,0.333,0
7.6,3.5198,14,0.0132,0.0574,0.2755,109.3534,0,399.7229,8.4,0.12,10000,32.81481593,-111.8321508,31.2,12.8,0.64,494,493,5.8,0.02,-0.04,-0.97,1,2,-0.5,48.28,0.7,-0.1,0,1770,1,13.7,77,46,0.98,23,22,22,22,22,22,22,4900,4900,4900,4900,4900,0,0,153,106,1203,-0.1,127.8,0,0.333,0
7.65,3.4549,14,0.0098,0.0359,0.4404,108.5029,0,399.7256,8.4,0.12,10000,32.8148157,-111.8321503,31.2,12.8,0.61,495,493,5.8,0.02,-0.04,-0.98,1,2.1,-0.5,48.26,0.7,-0.1,0,1754,1,13.7,77,46,0.98,23,22,22,22,22,22,22,4900,4900,4900,4900,4900,0,0,153,106,1203,-0.1,127.8,0,0.333,0
7.7,3.4853,14,0.0035,0.0332,0.1187,107.2794,0,399.7122,8.4,0.12,10000,32.81481567,-111.8321498,31.2,12.8,0.59,493,492,5.8,0.01,-0.05,-0.97,0.9,2.1,-0.5,48.24,0.7,-0.1,0,1739,1,13.7,77,46,0.98,24,23,23,22,22,22,22,4900,4900,4900,4900,4900,0,0,153,106,1203,-0.1,127.8,0,0.333,0
7.75,3.4814,14,0.002,0.0404,0.0957,107.4074,0,399.689,8.4,0.12,10000,32.81481554,-111.8321493,31.2,12.8,0.65,494,492,5.8,0.02,-0.04,-0.98,0.9,2,-0.6,48.22,0.7,-0.1,0,1723,1,13.7,77,46,0.98,24,23,23,22,22,22,22,4900,4900,4900,4900,4900,0,0,153,106,1203,-0.1,127.8,0,0.333,0
7.8,3.6422,14,-0.0034,0.0458,0.3073,106.6027,-0.2113,399.6971,8.4,0.12,274.3805,32.81481544,-111.8321487,31.2,12.8,0.59,494,492,5.8,0.03,-0.03,-0.99,0.8,2,-0.6,48.19,0.7,-0.1,0,1694,1,13.7,77,46,0.98,24,23,23,22,22,22,22,4900,4900,4900,4900,4900,0,0,153,106,1203,-0.1,127.8,0,0.333,0
7.85,3.6386,14,-0.0142,0.0383,0.7144,106.8961,-7.9833,399.7201,8.3725,0.12,7.2538,32.81481525,-111.8321482,31.2,12.8,0.6,495,492,5.8,0.03,-0.04,-0.99,0.6,2,-0.6,48.17,0.7,-0.1,0,1655,1,13.7,77,46,0.98,24,23,23,22,22,22,22,4900,4900,4900,4900,4900,0,0,153,106,1203,-0.1,127.8,0,0.333,0
7.9,3.5776,14,-0.0057,0.0503,0.6541,104.9016,-3.1612,399.7168,8.3,0.12,18.0116,32.81481511,-111.8321476,31.2,12.8,0.63,493,492,5.8,0.02,-0.04,-0.98,0.3,2,-0.6,48.15,0.7,-0.1,0,1615,1,13.7,77,46,0.98,23,22,23,22,22,22,22,4900,4900,4900,4900,4900,0,0,153,106,1203,-0.1,127.8,0,0.333,0
7.95,3.6171,14,-0.0042,0.0532,0.611,104.3314,-2.2637,399.7113,8.3,0.12,25.4306,32.81481506,-111.8321471,31.2,12.8,0.58,494,493,5.8,0.01,-0.03,-0.99,-0.1,2,-0.6,48.13,0.7,-0.1,0,1576,1,13.7,77,46,0.98,23,22,23,22,22,22,22,4900,4900,4900,4900,4900,0,0,153,106,1203,-0.1,127.8,0,0.333,0
8,4.0268,14,-0.0114,0.0462,-0.0082,105.4791,-5.9978,399.7044,8.3,0.12,10.6854,32.81481496,-111.8321464,31.2,12.8,0.61,495,492,5.8,0.02,-0.02,-0.98,0.2,2.2,-0.6,48.11,0.7,-0.1,0,1593,1,13.7,77,46,0.98,23,22,23,22,22,22,22,4900,4900,4900,4900,4900,0,0,153,106,1203,-0.1,127.8,0,0.333,0
8.05,4.1887,14,-0.0084,0.0424,0.1495,107.3528,-4.3569,399.7045,8.3,0.12,15.301,32.81481469,-111.8321459,31.2,12.8,0.65,493,491,5.8,0.02,-0.03,-0.96,0.5,2.3,-0.7,47.97,0.6,-0.1,0,1662,1,13.7,77,46,0.98,23,22,23,22,22,22,22,4900,4900,4900,4900,4900,0,0,153,106,1203,-0.1,127.8,0,0.333,0
8.1,4.2384,14,0.012,0.0544,0.2427,106.2697,6.0588,399.6983,8.3,0.12,11.1337,32.81481458,-111.8321452,31.2,12.8,0.6,494,491,5.8,0.01,-0.03,-0.97,0.8,2.1,-0.7,47.69,0.6,-0.1,0,1731,1,13.7,77,46,0.98,23,23,23,22,22,22,22,4900,4900,4900,4900,4900,0,0,153,106,1203,-0.1,127.8,0,0.333,0
8.15,4.1621,14,0.0042,0.0466,0.2166,105.6702,2.1149,399.704,8.3,0.12,31.3213,32.81481446,-111.8321446,31.2,12.8,0.62,494,492,5.8,0,-0.04,-0.97,1,2.1,-0.6,47.4,0.7,-0.1,0,1800,1,13.7,77,46,0.98,23,23,23,22,22,22,22,4900,4900,4900,4900,4900,0,0,153,106,1203,-0.1,127.8,0,0.333,0
8.2,4.173,14,-0.0048,0.0374,0.6716,106.5581,-2.3354,399.7052,8.3,0.12,28.439,32.81481421,-111.8321439,31.2,12.8,0.63,492,491,5.8,0.01,-0.06,-0.97,0.9,2.1,-0.6,47.12,0.7,-0.1,0,1815,1,13.7,77,46,0.98,23,23,23,22,22,22,22,4900,4900,4900,4900,4900,0,0,153,106,1203,-0.1,127.8,0,0.333,0
8.25,4.2816,14,0.0051,0.0236,0.2174,106.5789,2.4143,399.7072,8.3,0.12,28.2252,32.81481409,-111.8321433,31.2,12.8,0.57,492,491,5.79,0.01,-0.05,-0.97,0.7,2.1,-0.6,46.83,0.6,-0.2,0,1774,1,13.7,77,46,0.98,23,23,23,22,22,22,22,4900,4900,4900,4900,4900,0,0,153,106,1203,-0.1,127.8,0,0.333,0
8.3,4.2782,14,0.0041,0.031,0.4582,106.2347,1.9224,399.7149,8.3,0.12,35.4182,32.81481399,-111.8321426,31.2,12.8,0.59,492,491,5.8,0.01,-0.03,-0.99,0.5,2.2,-0.7,46.54,0.6,-0.2,0,1734,1,13.7,77,46,0.98,23,22,23,22,22,22,22,4900,4900,4900,4900,4900,0,0,153,106,1203,-0.1,127.8,0,0.333,0
8.35,4.2356,14,-0.002,0.0226,0.4658,105.5582,-0.9176,399.6995,8.3,0.12,73.4679,32.81481387,-111.8321421,31.2,12.8,0.63,495,492,5.8,0,-0.04,-0.98,0.3,2.2,-0.8,46.26,0.7,-0.1,0,1693,1,13.7,77,46,0.98,23,22,23,22,22,22,22,4900,4900,4900,4900,4900,0,0,153,106,1203,-0.1,127.8,0,0.333,0
8.4,4.3673,14,-0.0063,0.0231,0.3905,105.0642,-2.901,399.6908,8.3,0.12,23.9603,32.81481376,-111.8321414,31.2,12.8,0.59,496,493,5.8,-0.02,-0.02,-0.97,0.4,2.2,-0.8,45.97,0.7,-0.1,0,1657,1,13.7,77,46,0.98,23,22,23,22,22,22,22,4900,4900,4900,4900,4900,0,0,153,106,1203,-0.1,127.8,0,0.333,0
8.45,4.5991,14,-0.0127,0.0309,0.2287,105.7243,-5.8291,399.7012,8.3,0.12,12.5572,32.81481346,-111.8321407,31.2,12.8,0.58,495,493,5.8,-0.01,-0.01,-0.98,0.7,2.2,-0.8,45.69,0.7,-0.1,0,1626,1,13.7,77,46,0.98,23,22,23,22,22,22,22,4900,4900,4900,4900,4900,0,0,153,106,1203,-0.1,127.8,0,0.333,0
8.5,4.6544,14,0.0038,0.0454,0.2581,106.4629,1.7105,399.7045,8.3,0.12,43.3087,32.81481325,-111.83214,31.2,12.8,0.61,493,492,5.8,0,-0.01,-0.97,1.1,2.3,-0.7,45.4,0.7,-0.1,0,1594,1,13.6,77,46,0.98,23,23,23,22,22,22,22,4900,4900,4900,4900,4900,0,0,153,106,1203,-0.1,127.8,0,0.333,0
8.55,4.5437,14,0.0138,0.0469,0.2041,106.5699,6.0824,399.6906,8.3,0.12,11.8893,32.81481314,-111.8321394,31.2,12.8,0.59,494,493,5.8,0,-0.04,-0.95,1,2,-0.6,45.11,0.7,-0.1,0,1563,1,13.6,77,46,0.98,23,23,23,22,22,22,22,4900,4900,4900,4900,4900,0,0,153,106,1203,-0.1,127.8,0,0.333,0
8.6,4.6776,14,0.0119,0.0335,0.0718,106.5544,5.1663,399.6911,8.3,0.12,14.4101,32.8148129,-111.8321388,31.2,12.8,0.61,494,492,5.8,-0.01,-0.05,-0.97,0.6,1.8,-0.7,44.83,0.7,-0.1,0,1560,1,13.6,77,46,0.98,23,23,23,22,22,22,22,4900,4900,4900,4900,4900,0,0,153,106,1203,-0.1,127.8,0,0.333,0
8.65,4.8676,14,0.0024,0.0296,0.3488,106.3047,1.0368,399.7026,8.3,0.12,74.7224,32.8148128,-111.8321379,31.2,12.8,0.62,494,493,5.8,-0.01,-0.02,-0.99,0.5,2.1,-0.7,44.54,0.7,-0.1,0,1590,1,13.6,77,46,0.98,23,23,23,22,22,22,22,4900,4900,4900,4900,4900,0,0,153,106,1203,-0.1,127.8,0,0.333,0
8.7,4.7781,14,0.0071,0.0248,0.2639,105.5016,3.0288,399.6952,8.3,0.12,25.1075,32.81481266,-111.8321373,31.2,12.8,0.57,494,492,5.8,0.01,-0.02,-0.98,0.6,2.4,-0.7,44.26,0.7,-0.1,0,1619,1,13.6,77,46,0.98,23,23,23,22,22,22,22,4900,4900,4900,4900,4900,0,0,153,106,1203,-0.1,127.8,0,0.333,0
8.75,4.793,14,0.0018,0.0258,0.1661,105.9533,0.7735,399.6817,8.3,0.12,98.6171,32.81481247,-111.8321366,31.2,12.8,0.59,494,492,5.8,0.01,-0.03,-0.99,0.8,2.4,-0.7,43.97,0.7,-0.1,0,1645,1,13.6,77,46,0.98,23,23,23,22,22,22,22,4900,4900,4900,4900,4900,0,0,153,106,1203,-0.1,127.8,0,0.333,0
8.8,4.8398,14,-0.0016,0.0149,0.204,108.144,-0.6784,399.6791,8.3,0.12,113.5499,32.81481222,-111.8321359,31.2,12.8,0.61,494,492,5.8,0,-0.03,-0.98,1,2.6,-0.8,43.68,0.7,-0.1,0,1665,1,13.6,77,46,0.98,23,23,23,22,22,22,22,4900,4900,4900,4900,4900,0,0,153,106,1203,-0.1,127.8,0,0.333,0
8.85,4.8246,14,-0.0115,0.007,0.2065,107.0772,-4.7942,399.676,8.3,0.12,16.0167,32.81481207,-111.8321352,31.2,12.8,0.65,494,493,5.8,0.01,-0.02,-0.96,1,2.4,-0.8,43.4,0.7,-0.1,0,1686,1,13.7,77,46,0.98,23,23,23,22,22,22,22,4900,4900,4900,4900,4900,0,0,153,106,1203,-0.1,127.8,0,0.333,0
8.9,4.9659,14,-0.0094,0.0212,0.3502,106.9984,-3.9069,399.6858,8.3,0.12,20.2294,32.81481186,-111.8321345,31.2,12.8,0.88,494,492,5.8,0.04,-0.03,-1,1,2,-0.6,43.11,0.7,-0.1,0,1706,1,13.7,77,46,0.98,23,23,23,22,22,22,22,4900,4900,4900,4900,4900,0,0,153,106,1203,-0.1,127.8,0,0.333,0
8.95,5.0195,14,-0.0074,0.0274,0.5133,105.0167,-3.0549,399.6913,8.3,0.12,26.151,32.81481174,-111.8321337,31.2,12.8,1.05,494,493,5.8,0.05,-0.04,-1.05,1,2,-0.7,42.83,0.7,-0.1,0,1818,1,13.7,77,46,0.98,24,24,24,22.2,22.2,22.1,22.1,4900,4900,4900,4900,4900,0,0,153,106,1205.61,-0.1,127.8,0,0.333,0
9,4.9849,14,-0.012,0.0321,0.3187,104.6555,-4.8863,399.6936,8.2975,0.11,16.2367,32.81481159,-111.8321329,31.2,12.8,1.19,494,492,5.8,0.06,-0.05,-1.03,0.9,2.1,-0.8,42.54,0.7,-0.1,0,2057,1,13.7,77,46,0.98,26,27,27,22.6,22.6,22.5,22.5,4900,4900,4900,4900,4900,0,0,153,106,1211.83,-0.1,127.8,0,0.333,0
9.05,5.068,14,-0.0182,0.0092,0.3919,105.3701,-7.3251,399.6703,8.2,0.11,11.0114,32.81481146,-111.8321322,31.2,12.8,1.33,494,494,5.81,-0.01,-0.03,-0.97,1,1.8,-0.8,42.42,0.7,-0.1,0,2296,1,13.7,77,46,0.98,28,29,29,23.1,23.1,22.8,22.8,4900,4900,4900,4900,4900,0,0,153,106,1218.05,-0.1,127.8,0,0.333,0
9.1,5.0548,14,-0.0038,0.0192,0.3365,105.6774,-1.5102,399.6769,8.2,0.11,53.27,32.81481127,-111.8321315,31.2,12.8,1.51,494,494,5.81,0.03,-0.1,-0.91,0.7,1.9,-0.7,42.52,0.7,-0.1,0,2535,1,13.7,77,46,0.98,31,32,32,23.5,23.5,23.2,23.2,4900,4900,4900,4900,4900,0,0,153,106,1224.27,-0.1,127.8,0,0.333,0
9.15,5.0595,14,0.001,0.0345,0.7436,105.6029,0.4033,399.6983,8.2,0.11,199.6662,32.81481106,-111.8321307,31.2,12.8,1.74,493,490,5.8,-0.06,-0.03,-0.82,0.7,2.2,-0.7,42.62,0.7,-0.2,0,2786,1,13.7,77,46,0.98,32,33,33,24.3,24.3,23.9,24,4900,4900,4900,4900,4900,0,0,153,106,1220.34,-0.1,127.8,0,0.333,0
9.2,5.2227,14,-0.0047,0.0306,0.4838,105.0653,-1.8423,399.6871,8.2,0.11,45.119,32.81481088,-111.8321299,31.2,12.7,1.97,493,490,5.8,-0.08,-0.01,-0.87,0.6,2.2,-0.7,42.72,0.6,-0.2,0,3056,1,13.7,77,46,0.98,31,32,32,25.5,25.6,25.2,25.5,4900,4900,4900,4900,4900,0,0,153,106,1201.18,-0.1,127.8,0,0.333,0
9.25,5.2923,14,0.0068,0.0309,0.3393,105.372,2.6391,399.675,8.2,0.11,31.9153,32.81481071,-111.8321292,31.3,12.7,2.23,493,490,5.81,-0.03,0,-0.93,0.7,2.2,-0.8,42.82,0.6,-0.1,0,3325,1,13.7,77,46,0.98,31,32,31,26.7,26.9,26.6,27,4900,4900,4900,4900,4900,0,0,153,106,1182.03,-0.1,127.8,0,0.333,0
9.3,5.2725,14,0.0208,0.0399,0.1873,105.425,8.0146,399.6625,8.2,0.11,10.4702,32.81481054,-111.8321285,31.3,12.7,2.41,494,489,5.81,0.02,-0.05,-0.96,1.2,2.6,-0.8,42.93,0.6,-0.1,0,3595,1,13.7,77,46,0.98,30,31,30,27.9,28.2,27.9,28.5,4900,4900,4900,4900,4900,0,0,153,106,1162.88,-0.1,127.8,0,0.333,0
9.35,5.3461,14,0.0165,0.047,0.2363,105.3829,6.2687,399.6729,8.2,0.11,13.5732,32.81481032,-111.8321277,31.3,12.6,2.53,493,491,5.8,0.04,-0.02,-0.96,1.1,2.4,-0.8,43.03,0.6,-0.2,0,3869,1,13.6,77,46,0.98,30,31,30,30.5,30.6,30.4,31,4900,4900,4900,4900,4900,0,0,153,106,1151,-0.1,127.8,0,0.333,0
9.4,5.4434,14,0.0136,0.0667,0.5631,106.8719,5.0844,399.6882,8.2,0.11,17.0393,32.81481012,-111.8321268,31.3,12.6,2.68,493,490,5.8,0.03,-0.04,-0.94,1.1,1.8,-0.8,43.13,0.6,-0.2,0,4149,1,13.3,77,46,0.98,29,30,29,35.2,34.8,34.9,35.3,4900,4900,4900,4900,4900,0,0,153,106,1151,-0.1,127.8,0,0.333,0
9.45,5.6547,14,-0.0047,0.0748,0.4465,107.7521,-1.725,399.6812,8.2,0.11,52.1712,32.81480987,-111.832126,31.3,12.6,2.8,491,491,5.81,0.06,-0.07,-0.96,0.8,1.9,-0.7,43.23,0.6,-0.2,0,4429,1,12.9,77,46,0.98,28,29,29,39.9,38.9,39.5,39.5,4900,4900,4900,4900,4900,0,0,153,106,1151,-0.1,127.8,0,0.333,0
9.5,5.9302,14,-0.0089,0.0873,0.1749,105.7395,-3.1829,399.666,8.2,0.11,29.6526,32.81480966,-111.8321251,31.3,12.5,2.84,494,493,5.81,0.06,-0.03,-0.98,0.9,2.4,-0.6,43.33,0.6,-0.2,0,4710,1,12.6,77,46,0.98,27,28,28,44.6,43.1,44,43.8,4900,4900,4900,4900,4900,0,0,153,106,1151,-0.1,127.8,0,0.333,0
9.55,5.9411,14,-0.0113,0.1053,0.3625,104.7627,-3.9319,399.6656,8.2,0.11,24.0482,32.81480945,-111.8321242,31.3,12.5,2.83,493,490,5.81,0.1,-0.03,-0.99,0.9,2.5,-0.7,43.43,0.6,-0.2,0,4899,1,12.4,77.1,46,0.98,27,28,28,48.6,46.9,47.9,47.6,4900,4900,4900,4900,4900,0,0,153,106,1151,-0.1,127.8,0,0.333,0
9.6,6.0204,14,-0.01,0.12,0.3276,106.3623,-3.3851,399.6685,8.2,0.11,28.3059,32.81480917,-111.8321233,31.3,12.5,2.78,494,494,5.8,0.12,-0.02,-0.98,0.7,2.2,-0.8,43.53,0.7,-0.2,0,4927,1,12.4,77.3,46,0.98,26,27,27,51.4,50,50.8,50.5,4900,4900,4900,4900,4900,0,0,153,106,1151,-0.1,127.8,0,0.333,0
9.65,6.3718,14,-0.0178,0.1395,0.4754,106.5109,-5.8025,399.6794,8.2,0.11,17.4773,32.81480897,-111.8321224,31.3,12.5,2.65,495,494,5.81,0.11,-0.01,-0.95,0.7,2.2,-1,43.64,0.7,-0.1,0,4954,1,12.5,77.6,46,0.98,26,26,27,54.2,53.2,53.6,53.5,4900,4900,4900,4900,4900,0,0,153,106,1151,-0.1,127.8,0,0.333,0
9.7,6.6962,14,-0.0141,0.1554,0.4428,104.9354,-4.4039,399.6836,8.2,0.11,24.1998,32.81480875,-111.8321213,31.3,12.4,2.48,494,494,5.81,0.14,-0.06,-0.92,1.1,2.2,-1,43.74,0.7,-0.1,0,4982,1,12.5,77.8,46,0.98,25,25,26,56.9,56.3,56.5,56.4,4900,4900,4900,4900,4900,0,0,153,106,1151,-0.1,127.8,0,0.333,0
9.75,7.0277,14,-0.0089,0.1681,0.3029,104.2331,-2.6718,399.6765,8.2,0.11,41.8626,32.81480853,-111.8321202,31.3,12.4,2.23,494,491,5.81,0.18,-0.1,-0.92,0.6,2.1,-0.8,43.84,0.7,-0.1,0,4913,1,12.5,78,46,0.98,25,25,26,59.3,58.9,59,58.9,4900,4900,4900,4900,4900,0,0,153,106,1151,-0.1,127.8,0,0.333,0
9.8,7.2494,14,-0.0002,0.1685,0.3745,104.6451,-0.0641,399.6799,8.2,0.11,1800.0443,32.81480834,-111.8321192,31.3,12.4,1.98,493,491,5.8,0.18,-0.11,-0.88,0.3,1.9,-0.9,43.94,0.7,-0.1,0,4659,1,12.6,78,46,0.98,25,25,26,61,60.4,60.7,60.4,4900,4900,4900,4900,4900,0,0,153,106,1151,-0.1,127.8,0,0.333,0
9.85,7.6159,14,0.0026,0.1723,0.1682,105.0456,0.7031,399.6688,8.2,0.11,172.4044,32.81480804,-111.832118,31.3,12.3,1.72,494,492,5.8,0.08,-0.05,-0.92,0.6,2.5,-0.9,44.04,0.7,-0.1,0,4404,1,12.7,78,46,0.98,25,24,25,62.6,62,62.5,62,4900,4900,4900,4900,4900,0,0,153,106,1151,-0.1,127.8,0,0.333,0
9.9,7.9313,14,0.0121,0.1739,0.2431,105.3577,3.1851,399.6671,8.2,0.11,39.6312,32.81480778,-111.8321168,31.3,12.3,1.42,494,491,5.8,0.12,-0.04,-0.92,1.2,2.6,-0.9,44.14,0.7,-0.1,0,4094,1,12.7,78,46,0.98,25,24,25,62.5,61.7,62.7,62.3,4900,4900,4900,4900,4900,0,0,153,106,1153.07,-0.1,127.8,0,0.333,0
9.95,8.2154,14,0.0043,0.1768,0.1114,105.8341,1.1211,399.6608,8.2,0.11,116.6305,32.81480746,-111.8321155,31.3,12.3,1.09,494,492,5.81,0.2,-0.07,-0.97,1.7,1.7,-0.9,44.25,0.6,-0.1,0,3667,1,12.7,78,46,0.98,26,24,25,59,57.5,59.6,60.1,4900,4900,4900,4900,4900,0,0,153,106,1159.54,-0.1,127.8,0,0.333,0
10,8.5011,14,-0.0115,0.177,0.1605,105.5971,-2.8228,399.6532,8.2,0.11,47.9317,32.81480711,-111.8321142,31.3,12.2,0.8,495,492,5.81,0.18,-0.06,-1,1.4,1.9,-1.1,44.35,0.6,-0.1,0,3239,1,12.8,78,46,0.98,26,25,24,55.4,53.3,56.4,57.9,4900,4900,4900,4900,4900,0,0,153,106,1166.01,-0.1,127.8,0,0.333,0
10.05,8.7572,14,-0.0063,0.1428,0.1654,105.2953,-1.4983,399.6542,8.1725,0.11,93.0209,32.81480683,-111.832113,31.3,12.2,0.65,493,492,5.8,0.16,-0.06,-1.01,1,2.7,-1,44.35,0.6,-0.1,0,2811,1,12.8,78,46,0.98,27,25,24,51.8,49.1,53.3,55.7,4900,4900,4900,4900,4900,0,0,153,106,1172.47,-0.1,127.8,0,0.333,0
10.1,9.0795,14,0.0088,0.1528,0.1772,105.3059,2.0051,399.6527,8.1,0.11,72.0697,32.81480657,-111.8321116,31.3,12.3,0.51,495,493,5.81,0.16,-0.06,-1.04,0.9,3,-1,44.21,0.7,-0.1,0,2419,1,12.8,78,46,0.98,27,26,25,47.9,45.3,49.7,52.6,4900,4900,4900,4900,4900,0,0,153,106,1177,-0.1,127.8,0,0.333,0
10.15,9.3028,14,0.0021,0.1699,0.0842,105.0001,0.4701,399.6462,8.1,0.11,314.9689,32.81480626,-111.8321103,31.3,12.3,0.42,494,492,5.81,0.15,-0.05,-0.96,0.6,2.4,-1.1,44.07,0.7,-0.1,0,2111,1,13,78,46,0.98,29,28,27,43.4,42.3,45.1,47.3,4900,4900,4900,4900,4900,0,0,153,106,1177,-0.1,127.8,0,0.333,0
10.2,9.5769,14,-0.0167,0.1821,0.1609,104.6201,-3.6076,399.6557,8.1,0.11,42.2493,32.81480591,-111.8321087,31.3,12.3,0.37,492,492,5.81,0.15,-0.03,-0.94,0.7,1.7,-1.2,43.93,0.7,-0.2,0,1802,1,13.1,78,46,0.98,30,30,29,38.9,39.4,40.5,42,4900,4900,4900,4900,4900,0,0,153,106,1177,-0.1,127.8,0,0.333,0
10.25,9.9452,14,-0.0149,0.186,0.1954,104.5506,-3.1176,399.6561,8.1,0.11,50.7711,32.81480564,-111.8321072,31.3,12.4,0.47,491,488,5.81,0.17,-0.03,-0.99,1.4,2.6,-1.3,43.78,0.6,-0.2,0,1493,1,13.3,78,46,0.98,32,32,31,34.4,36.4,35.8,36.7,4900,4900,4900,4900,4900,0,0,153,106,1177,-0.1,127.8,0,0.333,0
10.3,10.2883,14,-0.013,0.196,0.193,104.7251,-2.6039,399.6648,8.1,0.11,62.883,32.81480527,-111.8321056,31.3,12.4,0.6,494,490,5.8,0.21,-0.06,-0.97,1.3,3.5,-1.3,43.64,0.6,-0.2,0,1321,1,13.4,78,46,0.98,34,34,34,30.8,33.8,32.2,32.5,4900,4900,4900,4900,4900,0,0,153,106,1178.81,-0.1,127.8,0,0.333,0
10.35,10.6924,14,-0.0142,0.2158,0.2817,105.0659,-2.7671,399.6615,8.1,0.11,61.499,32.81480488,-111.832104,31.3,12.4,0.71,493,494,5.81,0.23,-0.06,-0.95,1.2,2.5,-1.3,43.5,0.6,-0.1,0,1501,1,13.5,78,46,0.98,39,39,39,29.9,32.3,31.3,31.1,4900,4900,4900,4900,4900,0,0,153,106,1185.28,-0.1,127.8,0,0.333,0
10.4,11.0452,14,-0.0063,0.2228,0.1571,105.6276,-1.183,399.6597,8.1,0.11,148.5991,32.81480449,-111.8321025,31.3,12.5,0.75,495,494,5.81,0.21,-0.05,-1,0.9,1.7,-1.3,43.36,0.6,-0.1,0,1681,1,13.5,78,46,0.98,43,44,44,28.9,30.7,30.3,29.7,4900,4900,4900,4900,4900,0,0,153,106,1191.75,-0.1,127.8,0,0.333,0
10.45,11.6312,14,-0.0035,0.2266,0.0961,104.6702,-0.6299,399.6479,8.1,0.1128,293.8871,32.81480416,-111.8321006,31.3,12.5,0.77,495,493,5.81,0.22,-0.06,-1,0.6,2.2,-1.3,43.22,0.7,-0.1,0,1861,1,13.6,78,46,0.98,48,49,49,28,29.2,29.4,28.3,4900,4900,4900,4900,4900,0,0,153,106,1198.21,-0.1,127.8,0,0.333,0
10.5,11.9563,14,-0.0093,0.2327,0.1703,104.0032,-1.6182,399.6503,8.1,0.12,117.593,32.8148038,-111.8320988,31.3,12.5,0.76,495,492,5.81,0.22,-0.03,-0.97,0.2,2.2,-1.2,43.08,0.7,-0.1,0,1998,1,13.6,78,46,0.98,51,52,52,27.3,28,28.6,27.3,4900,4900,4900,4900,4900,0,0,153,106,1203,-0.1,127.8,0,0.333,0
